timestamp,battery,current_ma,mah_drawn,mah_remain,soc,auto_land,alt,roll,pitch,yaw,acc_x,acc_y,acc_z,gyro_x,gyro_y,gyro_z,mag_x,mag_y,mag_z,rc_roll,rc_pitch,rc_yaw,rc_throttle,rc_aux1,rc_aux2,rc_aux3,rc_aux4,pid_roll_p,pid_roll_i,pid_roll_d,pid_pitch_p,pid_pitch_i,pid_pitch_d,pid_yaw_p,pid_yaw_i,pid_yaw_d
1779380548.107,3.89,2849,23,527,83,0,-0.17,7.5,2.5,61,-0.049,0.115,0.994,2.12,8.62,-28.38,0.0,0.0,0.0,1500,1500,1500,1000,1500,1000,1000,1500,40,40,40,40,40,40,85,45,0
1779380549.233,3.84,2849,23,527,82,0,-0.10,7.5,2.8,66,-0.047,0.127,0.980,0.25,4.50,5.75,0.0,0.0,0.0,1500,1500,1500,1000,1500,1000,1000,1500,40,40,40,40,40,40,85,45,0
1779380550.370,3.83,2049,24,526,82,0,-0.06,8.2,2.6,67,-0.055,0.133,0.996,3.75,-4.25,1.38,0.0,0.0,0.0,1500,1500,1500,1000,1500,1000,1000,1500,40,40,40,40,40,40,85,45,0
1779380551.494,3.92,1950,25,525,82,0,-0.03,8.0,2.3,66,-0.053,0.127,0.992,0.50,0.12,1.00,0.0,0.0,0.0,1500,1500,1500,1000,1500,1000,1000,1500,40,40,40,40,40,40,85,45,0
1779380552.615,3.92,1799,25,525,82,0,-0.01,8.4,2.0,65,-0.053,0.127,0.994,-1.25,-3.00,-4.12,0.0,0.0,0.0,1500,1500,1500,1000,1500,1000,1000,1500,40,40,40,40,40,40,85,45,0
1779380553.753,3.92,1749,26,524,82,0,-0.01,7.8,1.1,65,-0.037,0.119,0.998,-3.50,-1.25,1.62,0.0,0.0,0.0,1500,1500,1500,1000,1500,1000,1000,1500,40,40,40,40,40,40,85,45,0
1779380554.884,3.92,1649,27,523,82,0,0.01,7.7,1.0,63,-0.031,0.113,0.996,-3.50,1.75,-3.75,0.0,0.0,0.0,1500,1500,1500,1000,1500,1000,1000,1500,40,40,40,40,40,40,85,45,0
1779380555.998,3.92,1600,27,523,82,0,0.03,7.3,0.7,64,-0.031,0.109,0.994,-2.88,1.12,-3.75,0.0,0.0,0.0,1500,1500,1500,1000,1500,1000,1000,1500,40,40,40,40,40,40,85,45,0
1779380557.114,3.92,1499,27,523,82,0,0.04,6.9,0.5,63,-0.025,0.098,0.998,0.50,-0.75,-5.50,0.0,0.0,0.0,1500,1500,1500,1000,1500,1000,1000,1500,40,40,40,40,40,40,85,45,0
1779380558.233,3.92,1450,28,522,82,0,0.05,6.8,0.5,63,-0.027,0.102,0.994,2.25,0.25,0.38,0.0,0.0,0.0,1500,1500,1500,1000,1500,1000,1000,1500,40,40,40,40,40,40,85,45,0
1779380559.378,3.92,1350,28,522,84,0,0.07,6.6,0.3,60,-0.020,0.102,0.992,3.38,-0.38,1.38,0.0,0.0,0.0,1500,1500,1500,1300,1500,1000,1000,1200,40,40,40,40,40,40,85,45,0
1779380560.489,3.91,600,29,521,84,0,0.10,5.8,1.2,66,-0.023,0.096,1.000,1.00,-2.25,-0.25,0.0,0.0,0.0,1500,1500,1500,1300,1500,1000,1000,1200,40,40,40,40,40,40,85,45,0
1779380561.623,3.91,550,29,521,84,0,0.10,5.8,1.2,67,-0.021,0.096,0.998,0.00,-0.62,-0.12,0.0,0.0,0.0,1500,1500,1500,1300,1500,1000,1000,1200,40,40,40,40,40,40,85,45,0
1779380562.761,3.91,550,29,521,84,0,0.10,5.8,1.2,67,-0.021,0.096,0.998,0.00,-0.62,-0.12,0.0,0.0,0.0,1500,1500,1500,1300,1500,1000,1000,1200,40,40,40,40,40,40,85,45,0
1779380563.885,4.01,449,29,521,86,0,0.08,5.5,1.2,69,-0.018,0.092,0.998,-0.50,-3.50,-0.75,0.0,0.0,0.0,1500,1500,1500,1300,1500,1000,1000,1200,40,40,40,40,40,40,85,45,0
1779380565.015,4.01,449,29,521,86,0,0.08,5.5,1.2,69,-0.018,0.092,0.998,-0.50,-3.50,-0.75,0.0,0.0,0.0,1500,1500,1500,1300,1500,1000,1000,1200,40,40,40,40,40,40,85,45,0
1779380566.148,4.01,449,29,521,86,0,0.00,2.9,0.2,66,-0.002,0.047,0.998,2.62,-0.12,0.00,0.0,0.0,0.0,1500,1500,1500,1300,1500,1000,1000,1200,40,40,40,40,40,40,85,45,0
1779380567.275,4.01,449,29,521,86,0,0.00,2.9,0.2,66,-0.002,0.047,0.998,2.62,-0.12,0.00,0.0,0.0,0.0,1500,1500,1500,1300,1500,1000,1000,1200,40,40,40,40,40,40,85,45,0
1779380568.426,4.01,449,29,521,86,0,0.00,2.9,0.2,66,-0.002,0.047,0.998,2.62,-0.12,0.00,0.0,0.0,0.0,1500,1500,1500,1300,1500,1000,1000,1200,40,40,40,40,40,40,85,45,0
1779380569.620,4.01,449,30,520,86,0,-0.01,2.9,-0.5,68,0.012,0.045,1.006,2.00,-0.25,0.50,0.0,0.0,0.0,1500,1500,1500,1300,1500,1000,1000,1200,40,40,40,40,40,40,85,45,0
1779380570.769,4.01,449,30,520,86,0,0.03,3.0,-0.8,68,0.010,0.051,1.006,-3.63,-1.00,-0.12,0.0,0.0,0.0,1500,1500,1500,1300,1500,1000,1000,1200,40,40,40,40,40,40,85,45,0
1779380571.884,3.91,600,30,520,83,0,0.05,1.7,-0.9,66,0.010,0.021,1.008,1.12,-1.87,1.38,0.0,0.0,0.0,1500,1500,1500,1000,1500,1000,1000,1500,40,40,40,40,40,40,85,45,0
1779380573.013,3.91,899,30,520,83,0,0.04,1.7,-0.9,66,0.014,0.033,1.004,-6.50,-0.62,-5.38,0.0,0.0,0.0,1500,1500,1500,1000,1500,1000,1000,1500,40,40,40,40,40,40,85,45,0
1779380574.138,3.92,1250,30,520,83,0,-0.03,1.8,-1.1,65,0.016,0.025,0.998,1.50,1.62,-8.50,0.0,0.0,0.0,1500,1500,1500,1000,1500,1000,1000,1500,40,40,40,40,40,40,85,45,0
1779380575.266,3.91,1100,31,519,83,0,0.08,1.9,-0.9,63,0.014,0.025,1.000,2.38,2.50,0.75,0.0,0.0,0.0,1500,1500,1500,1300,1500,1000,1000,1200,40,40,40,40,40,40,85,45,0
1779380576.408,3.91,1100,31,519,83,0,0.08,1.9,-0.9,63,0.014,0.025,1.000,2.38,2.50,0.75,0.0,0.0,0.0,1500,1500,1500,1300,1500,1000,1000,1200,40,40,40,40,40,40,85,45,0
1779380577.546,3.91,1100,31,519,83,0,0.08,1.9,-0.9,63,0.014,0.025,1.000,2.38,2.50,0.75,0.0,0.0,0.0,1500,1500,1500,1300,1500,1000,1000,1200,40,40,40,40,40,40,85,45,0
1779380578.673,4.01,449,32,518,85,0,0.25,2.1,-0.4,68,0.008,0.035,1.000,1.25,2.88,-1.25,0.0,0.0,0.0,1500,1500,1500,1300,1500,1000,1000,1200,40,40,40,40,40,40,85,45,0
1779380579.810,4.01,550,32,518,85,0,0.20,1.9,-0.7,68,0.006,0.031,1.004,0.75,0.50,1.38,0.0,0.0,0.0,1500,1500,1500,1000,1500,1000,1000,1500,40,40,40,40,40,40,85,45,0
1779380580.939,3.92,1299,32,518,83,0,-0.06,2.1,-0.9,66,0.002,0.029,1.004,3.50,-5.00,5.88,0.0,0.0,0.0,1500,1500,1500,1000,1500,1000,1000,1500,40,40,40,40,40,40,85,45,0
1779380582.091,3.92,1350,32,518,83,0,-0.08,2.2,-0.9,65,0.008,0.035,1.000,1.25,1.50,-4.75,0.0,0.0,0.0,1500,1500,1500,1000,1500,1000,1000,1500,40,40,40,40,40,40,85,45,0
1779380583.249,3.92,1399,33,517,83,0,-0.07,1.8,-1.0,65,0.010,0.023,0.998,-2.00,3.88,-8.75,0.0,0.0,0.0,1500,1500,1500,1800,1500,1000,1000,1500,40,40,40,40,40,40,85,45,0
1779380584.415,3.91,1100,33,517,83,0,0.07,1.5,-0.5,64,0.002,0.021,1.004,-1.25,-0.62,1.50,0.0,0.0,0.0,1500,1500,1500,1800,1500,1000,1000,1500,40,40,40,40,40,40,85,45,0
1779380585.552,4.01,499,33,517,85,0,0.19,2.1,-0.5,66,0.006,0.033,1.004,-0.62,1.62,-3.50,0.0,0.0,0.0,1500,1500,1500,1800,1500,1000,1000,1500,40,40,40,40,40,40,85,45,0
1779380586.685,4.01,449,33,517,85,0,0.15,2.1,-0.5,66,0.000,0.025,1.006,1.25,-3.25,1.12,0.0,0.0,0.0,1500,1500,1500,1000,1500,1000,1000,1500,40,40,40,40,40,40,85,45,0
1779380587.861,3.92,1250,34,516,83,0,0.01,2.0,-0.5,66,0.000,0.027,1.006,0.75,-2.50,-3.88,0.0,0.0,0.0,1500,1500,1500,1000,1500,1000,1000,1500,40,40,40,40,40,40,85,45,0
1779380588.986,3.92,1250,34,516,83,0,-0.06,2.0,-0.8,65,0.002,0.020,1.004,-3.00,-2.75,7.13,0.0,0.0,0.0,1500,1500,1500,1300,1500,1000,1000,1200,40,40,40,40,40,40,85,45,0
1779380590.124,3.93,1299,34,516,83,0,-0.06,1.9,-0.7,64,0.000,0.021,1.004,-2.12,-0.62,5.25,0.0,0.0,0.0,1500,1500,1500,1300,1500,1000,1000,1200,40,40,40,40,40,40,85,45,0
1779380591.267,4.01,449,35,515,85,0,-0.30,1.6,-0.1,68,-0.006,0.033,1.002,-3.00,-1.25,0.88,0.0,0.0,0.0,1500,1500,1500,1300,1500,1000,1000,1200,40,40,40,40,40,40,85,45,0
1779380592.404,4.01,449,35,515,85,0,-0.29,1.6,-0.1,68,0.000,0.027,1.002,0.88,-0.38,1.12,0.0,0.0,0.0,1500,1500,1500,1300,1500,1000,1000,1200,40,40,40,40,40,40,85,45,0
1779380593.536,4.01,449,35,515,85,0,-0.27,1.8,0.0,68,-0.002,0.023,1.004,2.38,-0.38,0.12,0.0,0.0,0.0,1500,1500,1500,1300,1500,1000,1000,1200,40,40,40,40,40,40,85,45,0
1779380594.672,4.01,449,35,515,85,0,-0.26,1.8,0.0,68,0.000,0.035,1.008,-1.62,-1.00,-0.62,0.0,0.0,0.0,1500,1500,1500,1300,1500,1000,1000,1200,40,40,40,40,40,40,85,45,0
1779380595.837,4.01,449,35,515,85,0,-0.24,1.3,-0.2,67,0.000,0.018,1.002,2.12,0.00,-2.50,0.0,0.0,0.0,1500,1500,1500,1300,1500,1000,1000,1200,40,40,40,40,40,40,85,45,0
1779380596.955,4.01,449,35,515,85,0,-0.24,1.3,-0.2,67,0.000,0.018,1.002,2.12,0.00,-2.50,0.0,0.0,0.0,1500,1500,1500,1300,1500,1000,1000,1200,40,40,40,40,40,40,85,45,0
1779380598.125,4.01,449,36,514,85,0,-0.24,1.3,-0.2,67,0.000,0.000,0.000,-1.25,-1.00,0.25,0.0,0.0,0.0,1500,1500,1500,1300,1500,1000,1000,1200,40,40,40,40,40,40,85,45,0
1779380599.273,4.01,449,36,514,85,0,-0.24,1.3,-0.2,67,0.000,0.000,0.000,-1.25,-1.00,0.25,0.0,0.0,0.0,1500,1500,1500,1300,1500,1000,1000,1200,40,40,40,40,40,40,85,45,0
1779380600.445,4.01,449,36,514,85,0,-0.24,1.3,-0.2,67,0.000,0.000,0.000,-1.25,-1.00,0.25,0.0,0.0,0.0,1500,1500,1500,1300,1500,1000,1000,1200,40,40,40,40,40,40,85,45,0
1779380601.580,4.01,449,36,514,85,0,-0.24,1.3,-0.2,67,0.000,0.000,0.000,-1.25,-1.00,0.25,0.0,0.0,0.0,1500,1500,1500,1300,1500,1000,1000,1200,40,40,40,40,40,40,85,45,0
1779380602.728,4.01,449,36,514,85,0,-0.24,1.3,-0.2,67,0.000,0.000,0.000,-1.25,-1.00,0.25,0.0,0.0,0.0,1500,1500,1500,1300,1500,1000,1000,1200,40,40,40,40,40,40,85,45,0
1779380603.870,4.01,449,36,514,85,0,-0.24,1.3,-0.2,67,0.000,0.000,0.000,-1.25,-1.00,0.25,0.0,0.0,0.0,1500,1500,1500,1000,1500,1000,1000,1500,40,40,40,40,40,40,85,45,0
1779380605.037,4.01,449,36,514,85,0,-0.24,1.3,-0.2,67,0.000,0.000,0.000,-1.25,-1.00,0.25,0.0,0.0,0.0,1500,1500,1500,1000,1500,1000,1000,1500,40,40,40,40,40,40,85,45,0
1779380606.204,4.01,449,36,514,85,0,-0.24,1.3,-0.2,67,0.000,0.000,0.000,-1.25,-1.00,0.25,0.0,0.0,0.0,1500,1500,1500,1800,1500,1000,1000,1500,40,40,40,40,40,40,85,45,0
1779380607.368,4.01,449,36,514,85,0,-0.24,1.3,-0.2,67,0.000,0.000,0.000,-1.25,-1.00,0.25,0.0,0.0,0.0,1500,1500,1500,1800,1500,1000,1000,1500,40,40,40,40,40,40,85,45,0
1779380608.548,4.01,449,36,514,85,0,-0.24,1.3,-0.2,67,0.000,0.000,0.000,-1.25,-1.00,0.25,0.0,0.0,0.0,1500,1500,1500,1800,1500,1000,1000,1500,40,40,40,40,40,40,85,45,0
1779380609.729,4.01,449,36,514,85,0,-0.24,1.3,-0.2,67,0.000,0.000,0.000,-1.25,-1.00,0.25,0.0,0.0,0.0,1500,1500,1500,1800,1500,1000,1000,1500,40,40,40,40,40,40,85,45,0
1779380610.892,4.01,449,36,514,85,0,-0.24,1.3,-0.2,67,0.000,0.000,0.000,-1.25,-1.00,0.25,0.0,0.0,0.0,1500,1500,1500,1800,1500,1000,1000,1500,40,40,40,40,40,40,85,45,0
1779380612.063,4.01,449,36,514,85,0,-0.24,1.3,-0.2,67,0.000,0.000,0.000,-1.25,-1.00,0.25,0.0,0.0,0.0,1500,1500,1500,1800,1500,1000,1000,1500,40,40,40,40,40,40,85,45,0
1779380613.248,4.01,449,36,514,85,0,-0.24,1.3,-0.2,67,0.000,0.000,0.000,-1.25,-1.00,0.25,0.0,0.0,0.0,1500,1500,1500,1800,1500,1000,1000,1500,40,40,40,40,40,40,85,45,0
1779380614.405,4.01,449,36,514,85,0,-0.24,1.3,-0.2,67,0.000,0.000,0.000,-1.25,-1.00,0.25,0.0,0.0,0.0,1500,1500,1500,1800,1500,1000,1000,1500,40,40,40,40,40,40,85,45,0
1779380615.571,4.01,449,36,514,85,0,-0.24,1.3,-0.2,67,0.000,0.000,0.000,-1.25,-1.00,0.25,0.0,0.0,0.0,1500,1500,1500,1800,1500,1000,1000,1500,40,40,40,40,40,40,85,45,0
1779380616.756,4.01,449,36,514,85,0,-0.24,1.3,-0.2,67,0.000,0.000,0.000,-1.25,-1.00,0.25,0.0,0.0,0.0,1500,1500,1500,1800,1500,1000,1000,1500,40,40,40,40,40,40,85,45,0
1779380617.941,4.01,449,36,514,85,0,-0.24,1.3,-0.2,67,0.000,0.000,0.000,-1.25,-1.00,0.25,0.0,0.0,0.0,1500,1500,1500,1800,1500,1000,1000,1500,40,40,40,40,40,40,85,45,0
1779380619.153,4.01,449,36,514,85,0,-0.24,1.3,-0.2,67,0.000,0.000,0.000,-1.25,-1.00,0.25,0.0,0.0,0.0,1500,1500,1500,1800,1500,1000,1000,1500,40,40,40,40,40,40,85,45,0
1779380620.332,4.01,449,36,514,85,0,-0.24,1.3,-0.2,67,0.000,0.000,0.000,-1.25,-1.00,0.25,0.0,0.0,0.0,1500,1500,1500,1800,1500,1000,1000,1500,40,40,40,40,40,40,85,45,0
1779380621.476,4.01,449,36,514,85,0,-0.24,1.3,-0.2,67,0.000,0.000,0.000,-1.25,-1.00,0.25,0.0,0.0,0.0,1500,1500,1500,1800,1500,1000,1000,1500,40,40,40,40,40,40,85,45,0
1779380622.637,4.01,449,36,514,85,0,-0.24,1.3,-0.2,67,0.000,0.000,0.000,-1.25,-1.00,0.25,0.0,0.0,0.0,1500,1500,1500,1800,1500,1000,1000,1500,40,40,40,40,40,40,85,45,0
1779380623.810,4.01,449,36,514,85,0,-0.24,1.3,-0.2,67,0.000,0.000,0.000,-1.25,-1.00,0.25,0.0,0.0,0.0,1500,1500,1500,1800,1500,1000,1000,1500,40,40,40,40,40,40,85,45,0
1779380624.990,4.01,499,39,511,85,0,-0.82,-0.4,-0.9,88,0.000,-0.014,1.000,-0.50,-0.38,0.38,0.0,0.0,0.0,1500,1500,1500,1800,1500,1000,1000,1500,40,40,40,40,40,40,85,45,0
1779380626.175,4.01,499,40,510,85,0,-0.82,-0.4,-0.9,88,0.000,-0.014,1.000,0.38,-0.62,0.00,0.0,0.0,0.0,1500,1500,1500,1800,1500,1000,1000,1500,40,40,40,40,40,40,85,45,0
1779380627.352,4.01,449,40,510,85,0,-0.81,-0.4,-0.9,88,0.000,-0.014,1.000,-0.12,-0.38,0.25,0.0,0.0,0.0,1500,1500,1500,1000,1500,1000,1000,1500,40,40,40,40,40,40,85,45,0
1779380628.481,3.91,800,40,510,82,0,-0.42,-0.4,-0.9,87,0.000,-0.012,1.000,-1.50,-1.62,2.62,0.0,0.0,0.0,1500,1500,1500,1000,1500,1000,1000,1500,40,40,40,40,40,40,85,45,0
1779380629.678,3.91,850,40,510,82,0,-0.36,-0.4,-0.9,87,0.000,-0.014,1.000,-2.50,-1.38,-3.63,0.0,0.0,0.0,1500,1500,1500,1000,1500,1000,1000,1500,40,40,40,40,40,40,85,45,0
1779380630.866,3.92,1399,41,509,81,0,0.21,-0.4,-0.8,86,0.000,-0.014,0.996,-0.75,-0.88,1.00,0.0,0.0,0.0,1500,1500,1500,1000,1500,1000,1000,1500,40,40,40,40,40,40,85,45,0
1779380632.050,3.92,1499,41,509,81,0,0.12,-0.4,-0.9,84,0.000,-0.014,0.998,2.88,0.88,-1.12,0.0,0.0,0.0,1500,1500,1500,1000,1500,1000,1000,1500,40,40,40,40,40,40,85,45,0
1779380633.213,3.92,1600,42,508,81,0,0.07,-0.4,-0.8,85,0.000,-0.012,1.000,0.75,-0.75,-0.88,0.0,0.0,0.0,1500,1500,1500,1000,1500,1000,1000,1500,40,40,40,40,40,40,85,45,0
1779380634.383,3.92,1600,42,508,81,0,0.07,-0.4,-0.8,85,0.000,-0.012,0.998,1.12,-2.12,-2.00,0.0,0.0,0.0,1500,1500,1500,1000,1500,1000,1000,1500,40,40,40,40,40,40,85,45,0
1779380635.536,3.92,1849,43,507,81,0,-0.04,-0.4,-0.9,81,0.000,-0.010,0.996,-2.38,-2.38,10.25,0.0,0.0,0.0,1500,1500,1500,1000,1500,1000,1000,1500,40,40,40,40,40,40,85,45,0
1779380636.697,3.92,1899,43,507,81,0,-0.02,-0.3,-0.8,82,0.004,-0.012,0.996,3.12,2.00,-4.12,0.0,0.0,0.0,1500,1500,1500,1000,1500,1000,1000,1500,40,40,40,40,40,40,85,45,0
1779380637.849,3.83,2099,44,506,77,0,-0.01,-0.2,-0.8,79,0.000,-0.012,0.998,2.88,1.25,0.12,0.0,0.0,0.0,1500,1500,1500,1000,1500,1000,1000,1500,40,40,40,40,40,40,85,45,0
1779380639.005,3.83,2099,44,506,77,0,-0.01,-0.2,-0.8,79,0.000,-0.012,0.998,2.88,1.25,0.12,0.0,0.0,0.0,1500,1500,1500,1000,1500,1000,1000,1500,40,40,40,40,40,40,85,45,0
1779380640.155,3.83,2099,44,506,77,0,-0.01,-0.2,-0.8,79,0.000,-0.012,0.998,2.88,1.25,0.12,0.0,0.0,0.0,1500,1500,1500,1000,1500,1000,1000,1500,40,40,40,40,40,40,85,45,0
1779380641.347,3.83,2099,44,506,77,0,-0.01,-0.2,-0.8,79,0.000,-0.012,0.998,2.88,1.25,0.12,0.0,0.0,0.0,1500,1500,1500,1000,1500,1000,1000,1500,40,40,40,40,40,40,85,45,0
1779380642.518,3.83,2299,47,503,77,0,-0.03,-0.2,-0.8,78,0.000,-0.012,0.996,1.50,5.00,-1.75,0.0,0.0,0.0,1500,1500,1500,1000,1500,1000,1000,1500,40,40,40,40,40,40,85,45,0
1779380643.690,3.83,2349,48,502,77,0,-0.01,-0.2,-0.8,78,0.000,-0.014,0.994,1.25,0.25,0.88,0.0,0.0,0.0,1500,1500,1500,1000,1500,1000,1000,1500,40,40,40,40,40,40,85,45,0
1779380644.871,3.83,2299,49,501,77,0,-0.05,-0.2,-0.9,78,0.000,-0.012,0.994,4.12,5.12,-2.88,0.0,0.0,0.0,1500,1500,1500,1000,1500,1000,1000,1500,40,40,40,40,40,40,85,45,0
1779380646.045,3.83,2299,49,501,77,0,0.00,-0.1,-0.9,79,0.000,-0.010,0.994,-3.88,-8.25,2.12,0.0,0.0,0.0,1500,1500,1500,1000,1500,1000,1000,1500,40,40,40,40,40,40,85,45,0
1779380647.217,3.83,2299,50,500,77,0,0.02,-0.1,-0.8,79,-0.004,-0.008,0.996,-1.12,1.62,0.75,0.0,0.0,0.0,1500,1500,1500,1000,1500,1000,1000,1500,40,40,40,40,40,40,85,45,0
1779380648.395,3.83,2299,51,499,77,0,-0.01,0.0,-0.8,79,0.000,-0.012,0.996,-4.75,-5.38,0.12,0.0,0.0,0.0,1500,1500,1500,1000,1500,1000,1000,1500,40,40,40,40,40,40,85,45,0
1779380649.579,3.83,2299,52,498,77,0,0.00,0.0,-0.8,79,0.002,-0.016,0.998,-2.88,-7.00,-3.88,0.0,0.0,0.0,1500,1500,1500,1300,1500,1000,1000,1200,40,40,40,40,40,40,85,45,0
1779380650.773,3.82,1499,52,498,77,0,-0.03,-0.4,-0.5,82,0.000,-0.014,0.998,0.12,-0.25,2.12,0.0,0.0,0.0,1500,1500,1500,1300,1500,1000,1000,1200,40,40,40,40,40,40,85,45,0
1779380651.940,4.01,449,53,497,83,0,0.01,-0.7,-0.2,92,0.000,-0.014,0.998,0.50,-0.50,0.00,0.0,0.0,0.0,1500,1500,1500,1300,1500,1000,1000,1200,40,40,40,40,40,40,85,45,0
1779380653.118,4.01,449,53,497,83,0,-0.01,-0.7,-0.2,91,0.000,-0.014,0.998,-0.25,-0.62,0.12,0.0,0.0,0.0,1500,1500,1500,1300,1500,1000,1000,1200,40,40,40,40,40,40,85,45,0
1779380654.301,4.01,499,53,497,83,0,-0.03,-0.8,-0.1,89,0.000,-0.014,1.000,0.00,-0.25,-0.12,0.0,0.0,0.0,1500,1500,1500,1300,1500,1000,1000,1200,40,40,40,40,40,40,85,45,0
1779380655.485,4.01,499,53,497,83,0,-0.03,-0.8,-0.1,88,0.000,-0.014,1.000,-0.25,-0.38,-0.38,0.0,0.0,0.0,1500,1500,1500,1300,1500,1000,1000,1200,40,40,40,40,40,40,85,45,0
1779380656.639,4.01,449,53,497,83,0,-0.06,-0.8,-0.1,88,0.000,-0.014,1.000,0.38,-0.25,-0.12,0.0,0.0,0.0,1500,1500,1500,1300,1500,1000,1000,1200,40,40,40,40,40,40,85,45,0
1779380657.808,4.01,449,53,497,83,0,-0.08,-0.8,-0.1,91,0.000,-0.014,1.000,0.62,-0.12,0.12,0.0,0.0,0.0,1500,1500,1500,1300,1500,1000,1000,1200,40,40,40,40,40,40,85,45,0
1779380658.959,4.01,449,53,497,83,0,-0.11,-0.8,-0.1,91,0.000,-0.014,1.000,0.38,-0.62,0.12,0.0,0.0,0.0,1500,1500,1500,1300,1500,1000,1000,1200,40,40,40,40,40,40,85,45,0
1779380660.120,4.01,499,54,496,83,0,-0.34,-0.8,-0.1,89,0.000,-0.012,1.000,0.00,-0.38,0.25,0.0,0.0,0.0,1500,1500,1500,1300,1500,1000,1000,1200,40,40,40,40,40,40,85,45,0
1779380661.311,4.01,499,54,496,83,0,-0.30,-0.8,-0.1,88,0.000,-0.014,1.000,0.38,-0.38,0.00,0.0,0.0,0.0,1500,1500,1500,1300,1500,1000,1000,1200,40,40,40,40,40,40,85,45,0
1779380662.467,4.01,499,54,496,83,0,-0.03,-0.8,-0.1,91,0.000,-0.014,1.000,0.50,-0.38,0.12,0.0,0.0,0.0,1500,1500,1500,1300,1500,1000,1000,1200,40,40,40,40,40,40,85,45,0
1779380663.637,4.01,499,54,496,83,0,-0.03,-0.8,-0.1,91,0.000,-0.014,1.000,0.50,-0.38,0.12,0.0,0.0,0.0,1500,1500,1500,1300,1500,1000,1000,1200,40,40,40,40,40,40,85,45,0
1779380664.795,4.01,449,54,496,83,0,-0.11,-0.8,-0.1,89,0.000,-0.014,1.000,-0.38,-0.50,0.00,0.0,0.0,0.0,1500,1500,1500,1300,1500,1000,1000,1200,40,40,40,40,40,40,85,45,0
1779380665.965,4.01,449,54,496,83,0,-0.11,-0.8,-0.1,89,0.000,-0.014,1.000,0.25,-0.25,0.00,0.0,0.0,0.0,1500,1500,1500,1300,1500,1000,1000,1200,40,40,40,40,40,40,85,45,0
1779380667.132,4.01,449,54,496,83,0,-0.01,-0.8,-0.1,89,0.000,-0.014,1.000,0.75,-0.75,-0.12,0.0,0.0,0.0,1500,1500,1500,1300,1500,1000,1000,1200,40,40,40,40,40,40,85,45,0
1779380668.289,4.01,449,55,495,83,0,0.03,-0.8,-0.1,87,0.000,-0.014,1.000,0.12,0.00,-0.12,0.0,0.0,0.0,1500,1500,1500,1300,1500,1000,1000,1200,40,40,40,40,40,40,85,45,0
1779380669.447,4.01,449,55,495,83,0,0.82,-1.6,12.3,83,-0.303,-0.189,0.875,24.00,-83.50,-9.12,0.0,0.0,0.0,1500,1500,1500,1300,1500,1000,1000,1200,40,40,40,40,40,40,85,45,0
1779380670.630,4.01,449,55,495,83,0,0.71,-4.1,-1.3,81,0.035,-0.051,0.998,3.38,3.12,0.75,0.0,0.0,0.0,1500,1500,1500,1300,1500,1000,1000,1200,40,40,40,40,40,40,85,45,0
1779380671.811,4.01,449,55,495,83,0,0.69,-2.0,5.2,74,-0.088,-0.057,1.043,10.00,-27.00,1.87,0.0,0.0,0.0,1500,1500,1500,1300,1500,1000,1000,1200,40,40,40,40,40,40,85,45,0
1779380672.969,4.01,449,55,495,83,0,0.83,-2.8,1.1,68,-0.027,-0.107,1.070,29.38,13.62,-12.25,0.0,0.0,0.0,1500,1500,1500,1300,1500,1000,1000,1200,40,40,40,40,40,40,85,45,0
1779380674.135,4.01,449,55,495,83,0,1.20,-0.5,-7.6,65,0.035,0.033,0.855,32.25,-55.50,71.62,0.0,0.0,0.0,1500,1500,1500,1300,1500,1000,1000,1200,40,40,40,40,40,40,85,45,0
1779380675.316,4.01,449,56,494,83,0,1.35,1.1,-9.2,19,0.127,-0.066,0.898,56.88,-59.25,28.25,0.0,0.0,0.0,1500,1500,1500,1300,1500,1000,1000,1200,40,40,40,40,40,40,85,45,0
1779380676.489,4.01,499,56,494,83,0,1.43,0.6,-8.6,31,0.203,-0.027,0.928,11.62,-22.38,-117.75,0.0,0.0,0.0,1500,1500,1500,1300,1500,1000,1000,1200,40,40,40,40,40,40,85,45,0
1779380677.663,4.01,449,56,494,83,0,1.45,-2.0,-19.9,105,0.389,-0.074,0.955,-38.12,11.50,-84.00,0.0,0.0,0.0,1500,1500,1500,1300,1500,1000,1000,1200,40,40,40,40,40,40,85,45,0
1779380678.863,4.01,499,56,494,83,0,1.41,1.3,-15.6,123,0.279,0.020,0.965,7.25,12.75,-6.62,0.0,0.0,0.0,1500,1500,1500,1300,1500,1000,1000,1200,40,40,40,40,40,40,85,45,0
1779380680.056,4.01,499,56,494,83,0,1.34,0.8,-13.3,136,0.215,0.004,0.969,12.00,-23.62,-39.88,0.0,0.0,0.0,1500,1500,1500,1300,1500,1000,1000,1200,40,40,40,40,40,40,85,45,0
1779380681.240,4.01,499,56,494,83,0,1.34,0.8,-13.3,136,0.215,0.004,0.969,12.00,-23.62,-39.88,0.0,0.0,0.0,1500,1500,1500,1300,1500,1000,1000,1200,40,40,40,40,40,40,85,45,0
1779380682.444,4.01,449,56,494,83,0,1.02,1.5,-17.9,108,0.328,0.057,0.949,15.63,6.38,69.12,0.0,0.0,0.0,1500,1500,1500,1300,1500,1000,1000,1200,40,40,40,40,40,40,85,45,0
1779380683.637,4.01,449,57,493,83,0,1.01,-0.8,-17.1,75,0.189,0.016,0.992,42.00,2.12,45.25,0.0,0.0,0.0,1500,1500,1500,1300,1500,1000,1000,1200,40,40,40,40,40,40,85,45,0
1779380684.841,4.01,449,57,493,83,0,1.03,2.5,-11.3,83,0.158,0.080,0.973,5.12,11.12,1.50,0.0,0.0,0.0,1500,1500,1500,1300,1500,1000,1000,1200,40,40,40,40,40,40,85,45,0
1779380686.052,4.01,449,57,493,83,0,0.98,3.1,-9.5,100,0.193,0.043,0.986,5.62,8.50,-17.62,0.0,0.0,0.0,1500,1500,1500,1300,1500,1000,1000,1200,40,40,40,40,40,40,85,45,0
1779380687.240,4.01,449,57,493,83,0,0.94,-2.2,-10.2,131,0.223,-0.107,0.922,-10.25,-11.12,-37.62,0.0,0.0,0.0,1500,1500,1500,1300,1500,1000,1000,1200,40,40,40,40,40,40,85,45,0
1779380688.452,4.01,449,57,493,83,0,0.98,-4.6,-8.8,163,0.152,-0.104,0.934,20.50,-12.75,-40.25,0.0,0.0,0.0,1500,1500,1500,1300,1500,1000,1000,1200,40,40,40,40,40,40,85,45,0
1779380689.646,4.01,449,57,493,83,0,1.01,-2.3,-9.3,167,0.158,-0.062,0.930,15.75,-34.00,-2.38,0.0,0.0,0.0,1500,1500,1500,1300,1500,1000,1000,1200,40,40,40,40,40,40,85,45,0
1779380690.854,4.01,449,57,493,83,0,1.06,-2.6,-10.3,167,0.186,-0.029,0.955,0.50,-11.50,-53.25,0.0,0.0,0.0,1500,1500,1500,1300,1500,1000,1000,1200,40,40,40,40,40,40,85,45,0
1779380692.053,4.01,449,58,492,83,0,1.13,-0.2,-10.4,162,0.121,0.070,0.896,9.62,-12.50,101.00,0.0,0.0,0.0,1500,1500,1500,1300,1500,1000,1000,1200,40,40,40,40,40,40,85,45,0
1779380693.240,4.01,449,58,492,83,0,1.16,0.8,-13.1,150,0.201,-0.018,1.088,3.88,-20.88,36.00,0.0,0.0,0.0,1500,1500,1500,1300,1500,1000,1000,1200,40,40,40,40,40,40,85,45,0
1779380694.413,4.01,449,58,492,83,0,1.23,1.4,-10.3,131,0.193,0.012,1.004,-12.00,6.00,27.38,0.0,0.0,0.0,1500,1500,1500,1300,1500,1000,1000,1200,40,40,40,40,40,40,85,45,0
1779380695.570,4.01,449,58,492,83,0,1.23,5.5,-8.5,125,0.154,0.090,1.016,-69.75,0.38,18.75,0.0,0.0,0.0,1500,1500,1500,1300,1500,1000,1000,1200,40,40,40,40,40,40,85,45,0
1779380696.742,4.01,449,58,492,83,0,1.18,-1.6,-9.2,115,0.160,-0.035,0.996,-21.38,-1.00,23.75,0.0,0.0,0.0,1500,1500,1500,1300,1500,1000,1000,1200,40,40,40,40,40,40,85,45,0
1779380697.914,4.01,449,58,492,83,0,1.10,-5.1,-7.1,-5,0.111,-0.070,1.189,-23.88,7.62,62.62,0.0,0.0,0.0,1500,1500,1500,1300,1500,1000,1000,1200,40,40,40,40,40,40,85,45,0
1779380699.080,4.01,449,59,491,83,0,1.18,-1.6,-8.6,-73,0.096,-0.027,1.033,88.62,56.25,251.13,0.0,0.0,0.0,1500,1500,1500,1300,1500,1000,1000,1200,40,40,40,40,40,40,85,45,0
1779380700.271,4.01,449,59,491,83,0,1.19,-5.8,-2.6,170,0.064,-0.086,1.018,0.62,23.12,107.75,0.0,0.0,0.0,1500,1500,1500,1300,1500,1000,1000,1200,40,40,40,40,40,40,85,45,0
1779380701.447,4.01,449,59,491,83,0,1.15,-2.1,-4.4,163,0.096,-0.072,0.979,26.62,9.62,-61.88,0.0,0.0,0.0,1500,1500,1500,1300,1500,1000,1000,1200,40,40,40,40,40,40,85,45,0
1779380702.615,4.01,449,59,491,83,0,0.93,3.8,-0.8,147,0.041,0.027,1.088,92.88,-37.50,28.62,0.0,0.0,0.0,1500,1500,1500,1300,1500,1000,1000,1200,40,40,40,40,40,40,85,45,0
1779380703.804,4.01,449,59,491,83,0,0.79,11.6,1.1,174,0.084,0.180,1.141,64.12,-30.00,17.50,0.0,0.0,0.0,1500,1500,1500,1300,1500,1000,1000,1200,40,40,40,40,40,40,85,45,0
1779380704.971,4.01,449,59,491,83,0,0.79,11.6,1.1,174,0.084,0.180,1.141,64.12,-30.00,17.50,0.0,0.0,0.0,1500,1500,1500,1300,1500,1000,1000,1200,40,40,40,40,40,40,85,45,0
1779380706.130,4.01,449,59,491,83,0,0.79,11.6,1.1,174,0.084,0.180,1.141,64.12,-30.00,17.50,0.0,0.0,0.0,1500,1500,1500,1300,1500,1000,1000,1200,40,40,40,40,40,40,85,45,0
1779380707.298,4.01,449,59,491,83,0,0.79,12.2,0.4,174,0.082,0.170,1.107,47.25,-35.12,38.25,0.0,0.0,0.0,1500,1500,1500,1300,1500,1000,1000,1200,40,40,40,40,40,40,85,45,0
1779380708.456,4.01,449,60,490,83,0,0.41,29.1,-6.0,-167,0.223,0.801,0.852,-185.12,64.00,25.62,0.0,0.0,0.0,1500,1500,1500,1300,1500,1000,1000,1200,40,40,40,40,40,40,85,45,0
1779380709.619,4.01,449,60,490,83,0,0.30,-0.9,0.5,-165,0.002,-0.014,1.000,0.62,-0.25,0.12,0.0,0.0,0.0,1500,1500,1500,1300,1500,1000,1000,1200,40,40,40,40,40,40,85,45,0
1779380710.790,4.01,449,60,490,83,0,0.14,-155.3,-37.3,-33,0.406,-0.135,-0.941,6.12,-8.50,2.00,0.0,0.0,0.0,1500,1500,1500,1300,1500,1000,1000,1200,40,40,40,40,40,40,85,45,0
1779380711.955,4.01,449,60,490,83,0,0.06,-158.7,-34.1,-35,0.393,-0.131,-0.932,-9.25,10.00,0.62,0.0,0.0,0.0,1500,1500,1500,1300,1500,1000,1000,1200,40,40,40,40,40,40,85,45,0
1779380713.141,4.01,449,60,490,83,0,-0.11,-164.0,-28.9,-36,0.396,-0.133,-0.930,-0.38,-0.50,-0.25,0.0,0.0,0.0,1500,1500,1500,1300,1500,1000,1000,1200,40,40,40,40,40,40,85,45,0
1779380714.320,4.01,449,60,490,83,0,-0.35,-174.7,-25.5,-32,0.484,0.117,-0.914,-120.75,116.50,45.12,0.0,0.0,0.0,1500,1500,1500,1300,1500,1000,1000,1200,40,40,40,40,40,40,85,45,0
1779380715.475,4.01,449,60,490,83,0,-0.35,-174.7,-25.5,-32,0.484,0.117,-0.914,-120.75,116.50,45.12,0.0,0.0,0.0,1500,1500,1500,1300,1500,1000,1000,1200,40,40,40,40,40,40,85,45,0
1779380716.627,4.01,449,61,489,83,0,0.33,-169.8,-20.2,-13,0.363,-0.146,-0.941,-1.25,0.62,-0.12,0.0,0.0,0.0,1500,1500,1500,1300,1500,1000,1000,1200,40,40,40,40,40,40,85,45,0
1779380717.765,4.01,499,61,489,83,0,0.73,-169.8,-20.2,-5,0.363,-0.146,-0.941,0.38,-0.38,0.00,0.0,0.0,0.0,1500,1500,1500,1300,1500,1000,1000,1200,40,40,40,40,40,40,85,45,0
1779380718.925,4.01,449,61,489,83,0,1.24,-169.8,-20.2,3,0.363,-0.146,-0.941,0.25,-0.38,-0.12,0.0,0.0,0.0,1500,1500,1500,1300,1500,1000,1000,1200,40,40,40,40,40,40,85,45,0
1779380720.112,4.01,449,61,489,83,0,1.45,-169.6,-20.0,9,0.344,-0.160,-0.938,-33.50,42.75,8.62,0.0,0.0,0.0,1500,1500,1500,1300,1500,1000,1000,1200,40,40,40,40,40,40,85,45,0
1779380721.302,4.01,449,61,489,83,0,1.47,-169.8,-20.3,11,0.375,-0.141,-0.957,-0.88,-8.00,-4.25,0.0,0.0,0.0,1500,1500,1500,1300,1500,1000,1000,1200,40,40,40,40,40,40,85,45,0
1779380722.444,4.01,449,61,489,83,0,1.55,-177.7,4.6,8,0.029,-0.086,-1.084,-98.88,-170.00,51.38,0.0,0.0,0.0,1500,1500,1500,1300,1500,1000,1000,1200,40,40,40,40,40,40,85,45,0
1779380723.597,4.01,449,62,488,82,0,1.44,42.0,10.9,-45,-0.195,0.801,0.645,-128.25,-34.75,28.12,0.0,0.0,0.0,1500,1500,1500,1300,1500,1000,1000,1200,40,40,40,40,40,40,85,45,0
1779380724.796,4.01,449,62,488,82,0,0.81,3.4,17.4,9,-0.207,0.059,0.914,62.87,42.50,-52.75,0.0,0.0,0.0,1500,1500,1500,1300,1500,1000,1000,1200,40,40,40,40,40,40,85,45,0
1779380725.987,4.01,499,62,488,83,0,0.00,0.6,-0.9,6,0.006,-0.021,0.998,0.25,-0.12,-0.12,0.0,0.0,0.0,1500,1500,1500,1300,1500,1000,1000,1200,40,40,40,40,40,40,85,45,0
1779380727.180,4.01,499,62,488,83,0,-0.11,-0.7,-0.6,7,0.004,-0.021,0.998,0.50,-0.25,-0.12,0.0,0.0,0.0,1500,1500,1500,1300,1500,1000,1000,1200,40,40,40,40,40,40,85,45,0
1779380728.380,4.01,499,62,488,83,0,-0.22,-1.3,-0.4,5,0.006,-0.021,0.998,-0.50,-0.62,0.00,0.0,0.0,0.0,1500,1500,1500,1300,1500,1000,1000,1200,40,40,40,40,40,40,85,45,0
1779380729.576,4.01,499,62,488,83,0,-0.23,-1.3,-0.5,6,0.004,-0.021,1.000,0.50,-0.50,0.25,0.0,0.0,0.0,1500,1500,1500,1300,1500,1000,1000,1200,40,40,40,40,40,40,85,45,0
1779380730.777,4.01,499,63,487,82,0,-0.19,-1.3,-0.4,6,0.006,-0.021,1.000,0.75,-0.62,0.25,0.0,0.0,0.0,1500,1500,1500,1300,1500,1000,1000,1200,40,40,40,40,40,40,85,45,0
1779380731.960,4.01,499,63,487,82,0,-0.18,-1.3,-0.5,6,0.004,-0.021,0.998,0.38,-0.50,-0.12,0.0,0.0,0.0,1500,1500,1500,1300,1500,1000,1000,1200,40,40,40,40,40,40,85,45,0
1779380733.144,4.01,499,63,487,82,0,-0.14,-1.3,-0.5,6,0.006,-0.021,0.998,0.12,-0.38,-0.12,0.0,0.0,0.0,1500,1500,1500,1300,1500,1000,1000,1200,40,40,40,40,40,40,85,45,0
1779380734.351,4.01,499,63,487,82,0,-0.14,-1.3,-0.5,6,0.006,-0.021,0.998,0.50,-0.25,-0.12,0.0,0.0,0.0,1500,1500,1500,1300,1500,1000,1000,1200,40,40,40,40,40,40,85,45,0
1779380735.537,4.01,499,63,487,82,0,-0.13,-1.3,-0.5,6,0.006,-0.021,0.998,-0.25,0.38,-0.12,0.0,0.0,0.0,1500,1500,1500,1300,1500,1000,1000,1200,40,40,40,40,40,40,85,45,0
1779380736.730,4.01,449,63,487,82,0,-0.13,-1.3,-0.4,6,0.006,-0.021,0.998,0.38,-0.25,0.00,0.0,0.0,0.0,1500,1500,1500,1300,1500,1000,1000,1200,40,40,40,40,40,40,85,45,0
1779380737.896,4.01,449,64,486,82,0,-0.11,-1.3,-0.5,6,0.006,-0.021,0.998,-0.25,-0.25,0.12,0.0,0.0,0.0,1500,1500,1500,1300,1500,1000,1000,1200,40,40,40,40,40,40,85,45,0
1779380739.062,4.01,449,64,486,82,0,-0.10,-1.3,-0.4,5,0.004,-0.021,0.998,-0.62,-0.38,0.25,0.0,0.0,0.0,1500,1500,1500,1000,1500,1000,1000,1500,40,40,40,40,40,40,85,45,0
1779380740.237,3.91,1200,64,486,79,0,0.01,-1.3,-0.7,8,0.006,-0.021,0.996,-0.25,2.62,1.87,0.0,0.0,0.0,1500,1500,1500,1000,1500,1000,1000,1500,40,40,40,40,40,40,85,45,0
1779380741.406,3.91,1200,64,486,79,0,0.05,-1.3,-0.8,7,0.006,-0.021,0.994,-1.38,0.62,2.88,0.0,0.0,0.0,1500,1500,1500,1000,1500,1000,1000,1500,40,40,40,40,40,40,85,45,0
1779380742.576,3.92,1250,65,485,79,0,0.04,-1.4,-0.8,7,0.006,-0.021,0.996,-0.38,-0.62,-0.75,0.0,0.0,0.0,1500,1500,1500,1000,1500,1000,1000,1500,40,40,40,40,40,40,85,45,0
1779380743.728,3.92,1250,65,485,79,0,0.04,-1.4,-0.8,7,0.006,-0.021,0.996,-0.38,-0.62,-0.75,0.0,0.0,0.0,1500,1500,1500,1000,1500,1000,1000,1500,40,40,40,40,40,40,85,45,0
1779380744.915,3.91,1200,66,484,79,0,-0.01,-1.4,-1.0,8,0.006,-0.021,0.994,0.12,-1.38,0.00,0.0,0.0,0.0,1500,1500,1500,1000,1500,1000,1000,1500,40,40,40,40,40,40,85,45,0
1779380746.104,3.92,1250,66,484,79,0,-0.02,-1.3,-1.0,7,0.006,-0.021,0.996,-0.50,-0.75,-0.12,0.0,0.0,0.0,1500,1500,1500,1000,1500,1000,1000,1500,40,40,40,40,40,40,85,45,0
1779380747.258,3.92,1250,66,484,79,0,0.03,-1.3,-1.0,9,0.006,-0.021,0.994,-1.50,1.12,-2.88,0.0,0.0,0.0,1500,1500,1500,1000,1500,1000,1000,1500,40,40,40,40,40,40,85,45,0
1779380748.447,3.92,1299,66,484,79,0,0.02,-1.3,-1.0,9,0.006,-0.023,0.996,1.25,-2.12,-1.50,0.0,0.0,0.0,1500,1500,1500,1000,1500,1000,1000,1500,40,40,40,40,40,40,85,45,0
1779380749.639,3.92,1299,66,484,79,0,0.02,-1.3,-1.0,9,0.006,-0.023,0.996,1.25,-2.12,-1.50,0.0,0.0,0.0,1500,1500,1500,1000,1500,1000,1000,1500,40,40,40,40,40,40,85,45,0
1779380750.811,3.92,1350,68,482,79,0,-0.02,-1.4,-1.1,9,0.004,-0.021,0.996,-0.88,-1.00,0.62,0.0,0.0,0.0,1500,1500,1500,1000,1500,1000,1000,1500,40,40,40,40,40,40,85,45,0
1779380752.005,3.92,1299,68,482,79,0,-0.02,-1.4,-1.1,9,0.004,-0.021,0.996,0.00,-0.50,-4.00,0.0,0.0,0.0,1500,1500,1500,1000,1500,1000,1000,1500,40,40,40,40,40,40,85,45,0
1779380753.185,3.92,1299,68,482,79,0,-0.02,-1.3,-1.1,9,0.006,-0.021,0.996,-0.25,-1.25,2.62,0.0,0.0,0.0,1500,1500,1500,1000,1500,1000,1000,1500,40,40,40,40,40,40,85,45,0
1779380754.352,3.92,1350,69,481,79,0,0.00,-1.3,-1.1,7,0.004,-0.021,0.994,0.00,0.62,2.88,0.0,0.0,0.0,1500,1500,1500,1000,1500,1000,1000,1500,40,40,40,40,40,40,85,45,0
1779380755.526,3.92,1350,69,481,79,0,0.00,-1.3,-1.1,7,0.004,-0.021,0.994,0.00,0.62,2.88,0.0,0.0,0.0,1500,1500,1500,1000,1500,1000,1000,1500,40,40,40,40,40,40,85,45,0
1779380756.689,3.92,1250,69,481,79,0,0.01,-1.3,-1.1,7,0.006,-0.021,0.996,2.12,1.12,1.62,0.0,0.0,0.0,1500,1500,1500,1000,1500,1000,1000,1500,40,40,40,40,40,40,85,45,0
1779380757.886,3.92,1250,70,480,79,0,0.00,-1.3,-1.1,7,0.004,-0.021,0.996,-0.25,0.50,2.00,0.0,0.0,0.0,1500,1500,1500,1000,1500,1000,1000,1500,40,40,40,40,40,40,85,45,0
1779380759.058,3.92,1250,71,479,79,0,0.01,-1.3,-1.1,9,0.006,-0.021,0.996,-0.12,-1.87,-1.00,0.0,0.0,0.0,1500,1500,1500,1000,1500,1000,1000,1500,40,40,40,40,40,40,85,45,0
1779380760.257,3.91,1200,71,479,78,0,0.00,-1.4,-1.1,8,0.004,-0.021,0.996,0.38,-0.75,-0.25,0.0,0.0,0.0,1500,1500,1500,1000,1500,1000,1000,1500,40,40,40,40,40,40,85,45,0
1779380761.467,3.91,1200,71,479,78,0,-0.01,-1.4,-1.1,8,0.004,-0.021,0.994,0.75,-1.87,2.00,0.0,0.0,0.0,1500,1500,1500,1000,1500,1000,1000,1500,40,40,40,40,40,40,85,45,0
1779380762.631,3.91,1200,71,479,78,0,-0.01,-1.4,-1.1,8,0.004,-0.021,0.994,1.50,0.12,0.12,0.0,0.0,0.0,1500,1500,1500,1000,1500,1000,1000,1500,40,40,40,40,40,40,85,45,0
1779380763.809,3.91,1200,72,478,78,0,0.01,-1.4,-1.1,8,0.004,-0.021,0.996,-1.12,2.00,0.62,0.0,0.0,0.0,1500,1500,1500,1000,1500,1000,1000,1500,40,40,40,40,40,40,85,45,0
1779380764.983,3.91,1200,72,478,78,0,0.00,-1.4,-1.1,8,0.004,-0.021,0.994,0.00,-0.88,0.62,0.0,0.0,0.0,1500,1500,1500,1000,1500,1000,1000,1500,40,40,40,40,40,40,85,45,0
1779380766.171,3.91,1200,73,477,78,0,0.00,-1.4,-1.1,8,0.006,-0.021,0.994,1.12,-1.00,2.38,0.0,0.0,0.0,1500,1500,1500,1000,1500,1000,1000,1500,40,40,40,40,40,40,85,45,0
1779380767.343,3.91,1200,73,477,78,0,0.00,-1.4,-1.1,8,0.006,-0.021,0.994,1.12,-1.00,2.38,0.0,0.0,0.0,1500,1500,1500,1000,1500,1000,1000,1500,40,40,40,40,40,40,85,45,0
1779380768.513,3.91,1200,74,476,78,0,-0.02,-1.4,-1.1,8,0.004,-0.021,0.994,0.12,-0.62,1.00,0.0,0.0,0.0,1500,1500,1500,1000,1500,1000,1000,1500,40,40,40,40,40,40,85,45,0
1779380769.698,3.91,1200,74,476,78,0,-0.03,-1.4,-1.1,8,0.004,-0.021,0.994,-1.38,-1.00,2.00,0.0,0.0,0.0,1500,1500,1500,1000,1500,1000,1000,1500,40,40,40,40,40,40,85,45,0
1779380770.876,3.91,1200,75,475,78,0,-0.04,-1.4,-1.1,8,0.004,-0.021,0.994,-1.12,-2.75,0.25,0.0,0.0,0.0,1500,1500,1500,1000,1500,1000,1000,1500,40,40,40,40,40,40,85,45,0
1779380772.079,3.91,1200,75,475,78,0,-0.01,-1.4,-1.1,8,0.004,-0.021,0.994,-0.25,2.12,0.88,0.0,0.0,0.0,1500,1500,1500,1000,1500,1000,1000,1500,40,40,40,40,40,40,85,45,0
1779380773.269,3.91,1200,75,475,78,0,-0.01,-1.4,-1.1,8,0.006,-0.020,0.994,-0.38,-0.38,-1.38,0.0,0.0,0.0,1500,1500,1500,1000,1500,1000,1000,1500,40,40,40,40,40,40,85,45,0
1779380774.416,3.91,699,76,474,78,0,-0.02,-1.4,-0.8,6,0.006,-0.021,0.996,-1.00,-0.38,0.50,0.0,0.0,0.0,1500,1500,1500,1800,1500,1000,1000,1500,40,40,40,40,40,40,85,45,0
1779380775.617,3.71,5699,76,474,70,0,0.32,-0.1,1.0,7,0.027,-0.018,1.039,-0.75,-1.38,3.75,0.0,0.0,0.0,1500,1500,1500,1300,1500,1000,1000,1200,40,40,40,40,40,40,85,45,0
1779380776.787,3.71,5699,76,474,70,0,0.32,-0.1,1.0,7,0.027,-0.018,1.039,-0.75,-1.38,3.75,0.0,0.0,0.0,1500,1500,1500,1800,1500,1000,1000,1500,40,40,40,40,40,40,85,45,0
1779380777.945,3.57,5650,77,473,66,0,0.69,-0.2,0.5,6,0.000,-0.018,0.578,11.50,39.62,11.12,0.0,0.0,0.0,1500,1500,1500,1300,1500,1000,1000,1200,40,40,40,40,40,40,85,45,0
1779380779.109,3.91,499,80,470,77,0,-1.69,1.1,15.9,-130,0.006,-0.025,0.994,0.00,-0.25,0.12,0.0,0.0,0.0,1500,1500,1500,1300,1500,1000,1000,1200,40,40,40,40,40,40,85,45,0
1779380780.272,3.91,499,80,470,77,0,-1.78,-0.8,2.1,-137,0.006,-0.025,0.998,-0.75,-0.75,0.00,0.0,0.0,0.0,1500,1500,1500,1300,1500,1000,1000,1200,40,40,40,40,40,40,85,45,0
1779380781.444,3.90,449,80,470,77,0,-1.15,-1.4,0.0,-144,0.006,-0.023,0.996,0.38,-0.25,0.38,0.0,0.0,0.0,1500,1500,1500,1300,1500,1000,1000,1200,40,40,40,40,40,40,85,45,0
1779380782.600,3.91,499,81,469,77,0,-0.72,-1.5,-0.3,-152,0.006,-0.025,0.998,1.12,-0.38,0.12,0.0,0.0,0.0,1500,1500,1500,1300,1500,1000,1000,1200,40,40,40,40,40,40,85,45,0
1779380783.804,3.91,499,81,469,77,0,-0.56,-1.6,-0.2,-170,0.006,-0.025,0.998,0.88,-0.25,0.12,0.0,0.0,0.0,1500,1500,1500,1300,1500,1000,1000,1200,40,40,40,40,40,40,85,45,0
1779380784.986,3.90,449,81,469,77,0,-0.55,-1.6,-0.3,179,0.006,-0.025,0.998,-0.25,-0.12,0.12,0.0,0.0,0.0,1500,1500,1500,1300,1500,1000,1000,1200,40,40,40,40,40,40,85,45,0
1779380786.155,3.91,699,81,469,77,0,-0.34,-1.6,-0.3,171,0.004,-0.025,0.996,0.25,0.12,2.38,0.0,0.0,0.0,1500,1500,1500,1000,1500,1000,1000,1500,40,40,40,40,40,40,85,45,0
1779380787.298,3.91,699,81,469,77,0,-0.32,-1.6,-0.3,171,0.006,-0.027,0.996,0.50,0.38,3.63,0.0,0.0,0.0,1500,1500,1500,1000,1500,1000,1000,1500,40,40,40,40,40,40,85,45,0
1779380788.483,3.82,1549,82,468,74,0,0.38,-1.7,-0.6,169,0.006,-0.023,0.994,1.50,-0.62,1.50,0.0,0.0,0.0,1500,1500,1500,1000,1500,1000,1000,1500,40,40,40,40,40,40,85,45,0
1779380789.635,3.82,1700,82,468,74,0,0.30,-1.7,-0.7,168,0.006,-0.021,0.992,-1.00,1.25,-2.75,0.0,0.0,0.0,1500,1500,1500,1300,1500,1000,1000,1200,40,40,40,40,40,40,85,45,0
1779380790.752,3.81,600,83,467,74,0,0.21,-1.6,-0.5,162,0.006,-0.025,0.994,-0.25,0.12,-0.12,0.0,0.0,0.0,1500,1500,1500,1300,1500,1000,1000,1200,40,40,40,40,40,40,85,45,0
1779380791.945,3.90,449,83,467,77,0,0.14,-1.6,-0.3,151,0.006,-0.025,0.996,-0.38,-0.38,0.12,0.0,0.0,0.0,1500,1500,1500,1300,1500,1000,1000,1200,40,40,40,40,40,40,85,45,0
1779380793.127,3.91,499,83,467,77,0,0.09,-1.6,-0.3,142,0.006,-0.025,0.996,0.25,-0.38,0.25,0.0,0.0,0.0,1500,1500,1500,1300,1500,1000,1000,1200,40,40,40,40,40,40,85,45,0
1779380794.300,3.91,499,83,467,77,0,0.05,-1.6,-0.3,130,0.006,-0.025,0.996,0.50,-0.50,0.25,0.0,0.0,0.0,1500,1500,1500,1300,1500,1000,1000,1200,40,40,40,40,40,40,85,45,0
1779380795.493,3.91,499,83,467,77,0,0.04,-1.6,-0.3,126,0.006,-0.025,0.998,0.00,-0.25,0.12,0.0,0.0,0.0,1500,1500,1500,1300,1500,1000,1000,1200,40,40,40,40,40,40,85,45,0
1779380796.699,3.91,499,84,466,77,0,0.04,-1.5,-0.5,123,0.006,-0.025,0.998,0.00,-0.75,0.12,0.0,0.0,0.0,1500,1500,1500,1300,1500,1000,1000,1200,40,40,40,40,40,40,85,45,0
1779380797.869,3.91,499,84,466,77,0,0.05,-1.6,-0.5,125,0.006,-0.025,0.996,-0.88,-0.25,0.12,0.0,0.0,0.0,1500,1500,1500,1300,1500,1000,1000,1200,40,40,40,40,40,40,85,45,0
1779380799.068,3.91,499,84,466,77,0,0.06,-1.6,-0.5,124,0.006,-0.025,0.996,-0.50,-0.50,0.00,0.0,0.0,0.0,1500,1500,1500,1300,1500,1000,1000,1200,40,40,40,40,40,40,85,45,0
1779380800.262,3.91,499,84,466,77,0,0.06,-1.6,-0.5,124,0.006,-0.025,0.996,-0.50,-0.50,0.00,0.0,0.0,0.0,1500,1500,1500,1300,1500,1000,1000,1200,40,40,40,40,40,40,85,45,0
1779380801.474,3.91,499,84,466,77,0,0.07,-1.6,-0.4,124,0.006,-0.025,0.996,-0.12,-1.00,0.12,0.0,0.0,0.0,1500,1500,1500,1300,1500,1000,1000,1200,40,40,40,40,40,40,85,45,0
1779380802.706,3.91,499,84,466,77,0,0.03,-1.6,-0.5,122,0.006,-0.025,0.998,0.38,-0.12,0.12,0.0,0.0,0.0,1500,1500,1500,1300,1500,1000,1000,1200,40,40,40,40,40,40,85,45,0
1779380803.927,3.91,499,84,466,77,0,0.03,-1.6,-0.5,122,0.006,-0.025,0.998,0.38,-0.12,0.12,0.0,0.0,0.0,1500,1500,1500,1300,1500,1000,1000,1200,40,40,40,40,40,40,85,45,0
1779380805.141,3.91,499,85,465,77,0,0.06,-1.6,-0.4,123,0.006,-0.025,0.998,0.25,-0.38,0.00,0.0,0.0,0.0,1500,1500,1500,1300,1500,1000,1000,1200,40,40,40,40,40,40,85,45,0
1779380806.338,3.91,499,85,465,77,0,0.06,-1.6,-0.4,122,0.006,-0.025,0.996,0.38,-0.25,0.25,0.0,0.0,0.0,1500,1500,1500,1300,1500,1000,1000,1200,40,40,40,40,40,40,85,45,0
1779380807.526,3.91,499,85,465,77,0,0.06,-1.6,-0.5,123,0.006,-0.025,0.998,-0.62,-0.38,0.12,0.0,0.0,0.0,1500,1500,1500,1300,1500,1000,1000,1200,40,40,40,40,40,40,85,45,0
1779380808.705,3.91,499,85,465,77,0,0.03,-1.6,-0.5,122,0.006,-0.025,0.998,-0.25,-0.25,0.25,0.0,0.0,0.0,1500,1500,1500,1300,1500,1000,1000,1200,40,40,40,40,40,40,85,45,0
1779380809.917,3.91,499,85,465,77,0,0.03,-1.6,-0.5,122,0.006,-0.025,0.998,-0.50,0.12,0.50,0.0,0.0,0.0,1500,1500,1500,1300,1500,1000,1000,1200,40,40,40,40,40,40,85,45,0
1779380811.133,3.91,499,85,465,77,0,0.05,-1.6,-0.5,124,0.006,-0.025,0.998,0.38,-0.38,0.25,0.0,0.0,0.0,1500,1500,1500,1300,1500,1000,1000,1200,40,40,40,40,40,40,85,45,0
1779380812.392,3.91,499,86,464,77,0,0.04,-1.6,-0.5,123,0.004,-0.025,0.998,-0.38,-0.38,0.25,0.0,0.0,0.0,1500,1500,1500,1300,1500,1000,1000,1200,40,40,40,40,40,40,85,45,0
1779380813.614,3.90,449,86,464,77,0,0.03,-1.6,-0.5,124,0.006,-0.025,0.996,-0.50,-0.25,0.00,0.0,0.0,0.0,1500,1500,1500,1300,1500,1000,1000,1200,40,40,40,40,40,40,85,45,0
1779380814.819,3.90,449,86,464,77,0,0.08,-1.6,-0.5,124,0.006,-0.025,0.996,0.00,-0.50,0.38,0.0,0.0,0.0,1500,1500,1500,1300,1500,1000,1000,1200,40,40,40,40,40,40,85,45,0
1779380816.018,3.90,449,86,464,77,0,0.07,-1.6,-0.5,124,0.006,-0.025,0.998,-0.12,-0.25,0.12,0.0,0.0,0.0,1500,1500,1500,1300,1500,1000,1000,1200,40,40,40,40,40,40,85,45,0
1779380817.228,3.91,499,86,464,77,0,0.07,-1.6,-0.5,124,0.006,-0.025,0.998,-0.62,-0.50,0.12,0.0,0.0,0.0,1500,1500,1500,1300,1500,1000,1000,1200,40,40,40,40,40,40,85,45,0
1779380818.416,3.90,449,87,463,77,0,0.07,-1.6,-0.5,123,0.006,-0.025,0.998,-0.38,-0.25,0.12,0.0,0.0,0.0,1500,1500,1500,1300,1500,1000,1000,1200,40,40,40,40,40,40,85,45,0
1779380819.609,3.91,499,87,463,77,0,0.07,-1.6,-0.5,123,0.006,-0.025,0.998,0.25,-0.50,0.25,0.0,0.0,0.0,1500,1500,1500,1300,1500,1000,1000,1200,40,40,40,40,40,40,85,45,0
1779380820.807,3.91,499,87,463,77,0,0.07,-1.6,-0.5,123,0.006,-0.025,0.996,-0.62,-0.12,0.38,0.0,0.0,0.0,1500,1500,1500,1000,1500,1000,1000,1500,40,40,40,40,40,40,85,45,0
1779380821.989,3.91,499,87,463,77,0,0.07,-1.6,-0.5,124,0.004,-0.025,0.996,0.38,0.25,0.12,0.0,0.0,0.0,1500,1500,1500,1000,1500,1000,1000,1500,40,40,40,40,40,40,85,45,0
1779380823.152,3.91,850,87,463,77,0,0.08,-1.6,-0.6,123,0.006,-0.025,0.994,0.38,-0.50,2.50,0.0,0.0,0.0,1500,1500,1500,1300,1500,1000,1000,1200,40,40,40,40,40,40,85,45,0
1779380824.357,3.90,449,88,462,77,0,0.14,-1.6,-0.5,123,0.004,-0.025,0.996,-0.25,-0.38,0.25,0.0,0.0,0.0,1500,1500,1500,1300,1500,1000,1000,1200,40,40,40,40,40,40,85,45,0
1779380825.562,3.90,449,88,462,77,0,0.15,-1.6,-0.5,124,0.006,-0.025,0.998,-1.38,-0.62,0.12,0.0,0.0,0.0,1500,1500,1500,1300,1500,1000,1000,1200,40,40,40,40,40,40,85,45,0
1779380826.761,3.91,1100,88,462,77,0,0.03,-1.6,-0.6,123,0.006,-0.027,0.994,-0.75,-2.75,-0.88,0.0,0.0,0.0,1500,1500,1500,1000,1500,1000,1000,1500,40,40,40,40,40,40,85,45,0
1779380827.943,3.92,1250,88,462,77,0,-0.03,-1.6,-0.6,122,0.006,-0.025,0.992,0.00,-0.38,3.12,0.0,0.0,0.0,1500,1500,1500,1000,1500,1000,1000,1500,40,40,40,40,40,40,85,45,0
1779380829.135,3.92,1250,88,462,77,0,-0.03,-1.7,-0.6,122,0.004,-0.025,0.992,2.12,-0.25,-0.25,0.0,0.0,0.0,1500,1500,1500,1000,1500,1000,1000,1500,40,40,40,40,40,40,85,45,0
1779380830.309,3.92,1350,89,461,77,0,-0.07,-1.7,-0.7,122,0.004,-0.025,0.994,1.00,0.12,-2.00,0.0,0.0,0.0,1500,1500,1500,1000,1500,1000,1000,1500,40,40,40,40,40,40,85,45,0
1779380831.500,3.82,1549,89,461,73,0,-0.02,-1.7,-0.8,119,0.006,-0.023,0.994,2.25,-1.50,4.25,0.0,0.0,0.0,1500,1500,1500,1000,1500,1000,1000,1500,40,40,40,40,40,40,85,45,0
1779380832.708,3.82,1649,90,460,73,0,0.00,-1.7,-0.9,119,0.006,-0.027,0.994,-1.50,1.25,-5.50,0.0,0.0,0.0,1500,1500,1500,1000,1500,1000,1000,1500,40,40,40,40,40,40,85,45,0
1779380833.912,3.82,1899,91,459,73,0,0.01,-1.8,-1.0,117,0.010,-0.027,0.994,0.12,1.00,4.88,0.0,0.0,0.0,1500,1500,1500,1000,1500,1000,1000,1500,40,40,40,40,40,40,85,45,0
1779380835.113,3.83,2049,92,458,73,0,0.01,-1.5,-0.7,116,0.000,-0.016,0.990,-1.50,0.25,0.00,0.0,0.0,0.0,1500,1500,1500,1000,1500,1000,1000,1500,40,40,40,40,40,40,85,45,0
1779380836.305,3.83,2099,92,458,73,0,0.02,-1.6,-0.9,115,0.006,-0.025,0.994,-0.75,-2.75,0.88,0.0,0.0,0.0,1500,1500,1500,1000,1500,1000,1000,1500,40,40,40,40,40,40,85,45,0
1779380837.492,3.83,2299,93,457,73,0,0.00,-1.5,-0.8,114,0.006,-0.021,0.996,2.00,5.62,-5.12,0.0,0.0,0.0,1500,1500,1500,1000,1500,1000,1000,1500,40,40,40,40,40,40,85,45,0
1779380838.693,3.83,2299,94,456,73,0,-0.04,-1.5,-0.8,113,0.006,-0.021,0.994,-2.38,-0.38,-2.00,0.0,0.0,0.0,1500,1500,1500,1000,1500,1000,1000,1500,40,40,40,40,40,40,85,45,0
1779380839.886,3.83,2299,95,455,73,0,-0.03,-1.5,-0.9,111,0.004,-0.020,0.992,-3.38,-0.50,0.12,0.0,0.0,0.0,1500,1500,1500,1000,1500,1000,1000,1500,40,40,40,40,40,40,85,45,0
1779380841.087,3.83,2250,95,455,73,0,-0.02,-1.5,-1.0,111,0.006,-0.027,0.994,2.50,-1.00,-1.50,0.0,0.0,0.0,1500,1500,1500,1000,1500,1000,1000,1500,40,40,40,40,40,40,85,45,0
1779380842.258,3.83,2250,96,454,73,0,0.01,-1.5,-1.1,110,0.004,-0.023,0.992,-1.38,-1.75,-2.62,0.0,0.0,0.0,1500,1500,1500,1000,1500,1000,1000,1500,40,40,40,40,40,40,85,45,0
1779380843.432,3.83,2250,96,454,73,0,0.02,-1.6,-1.1,109,0.002,-0.025,0.990,4.38,7.88,-2.75,0.0,0.0,0.0,1500,1500,1500,1300,1500,1000,1000,1200,40,40,40,40,40,40,85,45,0
1779380844.613,3.91,499,97,453,76,0,0.11,-1.5,-0.6,117,0.006,-0.025,0.996,-1.50,-0.25,0.38,0.0,0.0,0.0,1500,1500,1500,1300,1500,1000,1000,1200,40,40,40,40,40,40,85,45,0
1779380845.830,3.91,499,97,453,76,0,0.13,-1.5,-0.6,121,0.004,-0.025,0.996,-0.75,-0.38,0.25,0.0,0.0,0.0,1500,1500,1500,1300,1500,1000,1000,1200,40,40,40,40,40,40,85,45,0
1779380847.016,3.91,499,97,453,76,0,0.15,-1.5,-0.5,121,0.006,-0.025,0.996,-0.38,-0.62,0.25,0.0,0.0,0.0,1500,1500,1500,1300,1500,1000,1000,1200,40,40,40,40,40,40,85,45,0
1779380848.205,3.91,499,97,453,76,0,0.15,-1.5,-0.5,121,0.006,-0.025,0.996,-0.38,-0.62,0.25,0.0,0.0,0.0,1500,1500,1500,1300,1500,1000,1000,1200,40,40,40,40,40,40,85,45,0
1779380849.409,3.91,499,98,452,76,0,0.10,-1.5,-0.5,125,0.006,-0.025,0.996,-0.25,0.00,0.25,0.0,0.0,0.0,1500,1500,1500,1300,1500,1000,1000,1200,40,40,40,40,40,40,85,45,0
1779380850.621,3.91,499,98,452,76,0,0.10,-1.5,-0.5,125,0.006,-0.025,0.996,-1.00,-0.50,-0.12,0.0,0.0,0.0,1500,1500,1500,1300,1500,1000,1000,1200,40,40,40,40,40,40,85,45,0
1779380851.793,3.90,449,98,452,76,0,0.12,-1.6,-0.5,124,0.006,-0.025,0.996,0.38,-0.38,0.12,0.0,0.0,0.0,1500,1500,1500,1300,1500,1000,1000,1200,40,40,40,40,40,40,85,45,0
1779380853.000,3.91,499,98,452,76,0,0.12,-1.6,-0.5,124,0.006,-0.025,0.996,0.12,-0.25,0.25,0.0,0.0,0.0,1500,1500,1500,1300,1500,1000,1000,1200,40,40,40,40,40,40,85,45,0
1779380854.197,3.91,499,98,452,76,0,0.12,-1.6,-0.5,125,0.006,-0.025,0.996,0.00,-0.62,0.00,0.0,0.0,0.0,1500,1500,1500,1300,1500,1000,1000,1200,40,40,40,40,40,40,85,45,0
1779380855.433,3.91,499,99,451,76,0,0.12,-1.6,-0.5,124,0.006,-0.025,0.996,-0.62,-0.50,-0.12,0.0,0.0,0.0,1500,1500,1500,1300,1500,1000,1000,1200,40,40,40,40,40,40,85,45,0
1779380856.658,3.91,499,99,451,76,0,0.13,-1.6,-0.5,124,0.006,-0.025,0.996,-0.38,-0.25,0.00,0.0,0.0,0.0,1500,1500,1500,1300,1500,1000,1000,1200,40,40,40,40,40,40,85,45,0
1779380857.848,3.91,499,99,451,76,0,0.11,-1.6,-0.5,125,0.004,-0.025,0.996,-0.50,-0.12,-0.12,0.0,0.0,0.0,1500,1500,1500,1000,1500,1000,1000,1500,40,40,40,40,40,40,85,45,0
1779380859.059,3.91,499,99,451,76,0,0.12,-1.6,-0.5,125,0.006,-0.025,0.996,0.50,-0.50,0.25,0.0,0.0,0.0,1500,1500,1500,1000,1500,1000,1000,1500,40,40,40,40,40,40,85,45,0
1779380860.243,3.82,1250,99,451,72,0,-0.01,-1.7,-0.6,121,0.006,-0.025,0.992,0.00,-2.75,3.00,0.0,0.0,0.0,1500,1500,1500,1000,1500,1000,1000,1500,40,40,40,40,40,40,85,45,0
1779380861.433,3.82,1350,100,450,72,0,-0.02,-1.8,-0.7,120,0.004,-0.025,0.994,2.25,-1.62,3.50,0.0,0.0,0.0,1500,1500,1500,1000,1500,1000,1000,1500,40,40,40,40,40,40,85,45,0
1779380862.620,3.82,1350,100,450,72,0,-0.02,-1.8,-0.7,120,0.004,-0.025,0.992,-2.12,-0.25,-2.00,0.0,0.0,0.0,1500,1500,1500,1000,1500,1000,1000,1500,40,40,40,40,40,40,85,45,0
1779380863.833,3.82,1700,101,449,72,0,0.00,-1.9,-0.9,118,0.004,-0.025,0.992,0.75,1.00,-4.38,0.0,0.0,0.0,1500,1500,1500,1000,1500,1000,1000,1500,40,40,40,40,40,40,85,45,0
1779380865.029,3.82,1849,102,448,72,0,-0.03,-1.9,-0.9,116,0.006,-0.020,0.992,1.50,-2.00,7.50,0.0,0.0,0.0,1500,1500,1500,1000,1500,1000,1000,1500,40,40,40,40,40,40,85,45,0
1779380866.230,3.82,1849,102,448,72,0,-0.02,-1.9,-0.9,116,0.006,-0.025,0.996,0.25,-0.50,-6.50,0.0,0.0,0.0,1500,1500,1500,1000,1500,1000,1000,1500,40,40,40,40,40,40,85,45,0
1779380867.446,3.83,2049,103,447,72,0,-0.02,-1.7,-0.7,114,0.000,-0.018,0.990,-0.38,1.50,0.25,0.0,0.0,0.0,1500,1500,1500,1000,1500,1000,1000,1500,40,40,40,40,40,40,85,45,0
1779380868.662,3.83,2049,103,447,72,0,-0.02,-1.7,-0.8,114,0.002,-0.023,0.992,-2.00,-6.12,-0.38,0.0,0.0,0.0,1500,1500,1500,1000,1500,1000,1000,1500,40,40,40,40,40,40,85,45,0
1779380869.868,3.73,2200,104,446,69,0,0.04,-1.7,-0.9,113,0.004,-0.023,0.996,1.38,5.38,-2.00,0.0,0.0,0.0,1489,1500,1500,1000,1500,1000,1000,1500,40,40,40,40,40,40,85,45,0
1779380871.065,3.73,2299,105,445,69,0,-0.02,-1.7,-1.0,112,0.006,-0.027,0.994,2.88,-1.12,-0.62,0.0,0.0,0.0,1461,1500,1500,1000,1500,1000,1000,1500,40,40,40,40,40,40,85,45,0
1779380872.281,3.73,2299,106,444,68,0,0.00,-1.7,-1.0,111,0.004,-0.025,0.996,2.75,1.12,1.75,0.0,0.0,0.0,1432,1500,1500,1000,1500,1000,1000,1500,40,40,40,40,40,40,85,45,0
1779380873.468,3.73,2250,107,443,68,0,0.00,-1.8,-1.1,110,0.006,-0.027,0.994,2.12,-1.25,-0.38,0.0,0.0,0.0,1407,1500,1500,1000,1500,1000,1000,1500,40,40,40,40,40,40,85,45,0
1779380874.644,3.73,2250,107,443,68,0,0.01,-1.8,-1.2,110,0.006,-0.023,0.994,-3.75,1.25,0.50,0.0,0.0,0.0,1366,1500,1500,1000,1500,1000,1000,1500,40,40,40,40,40,40,85,45,0
1779380875.830,3.73,2250,108,442,68,0,0.01,-1.8,-1.1,110,0.008,-0.027,0.990,2.12,-2.75,-2.00,0.0,0.0,0.0,1500,1500,1500,1000,1500,1000,1000,1500,40,40,40,40,40,40,85,45,0
1779380877.017,3.73,2250,109,441,68,0,0.00,-1.7,-1.0,109,0.008,-0.025,0.998,1.25,5.62,-3.88,0.0,0.0,0.0,1411,1500,1500,1000,1500,1000,1000,1500,40,40,40,40,40,40,85,45,0
1779380878.241,3.73,2250,109,441,68,0,0.02,-1.7,-1.0,109,0.002,-0.025,0.992,-1.50,-3.75,3.12,0.0,0.0,0.0,1301,1500,1500,1000,1500,1000,1000,1500,40,40,40,40,40,40,85,45,0
1779380879.440,3.73,2250,110,440,68,0,0.02,-1.6,-0.9,108,0.006,-0.023,0.990,0.50,-3.25,3.88,0.0,0.0,0.0,1500,1500,1500,1000,1500,1000,1000,1500,40,40,40,40,40,40,85,45,0
1779380880.668,3.73,2250,111,439,68,0,0.01,-1.8,-1.4,108,0.006,-0.023,0.996,-0.88,-0.50,3.50,0.0,0.0,0.0,1500,1500,1500,1000,1500,1000,1000,1500,40,40,40,40,40,40,85,45,0
1779380881.858,3.73,2250,111,439,68,0,-0.01,-1.8,-1.3,109,0.008,-0.025,0.996,2.88,7.00,-6.75,0.0,0.0,0.0,1500,1500,1500,1000,1500,1000,1000,1500,40,40,40,40,40,40,85,45,0
1779380883.070,3.73,2250,112,438,68,0,0.00,-1.7,-1.0,109,0.004,-0.027,0.990,1.38,2.12,0.38,0.0,0.0,0.0,1500,1500,1500,1000,1500,1000,1000,1500,40,40,40,40,40,40,85,45,0
1779380884.298,3.73,2250,113,437,68,0,-0.01,-1.7,-1.0,109,0.008,-0.025,0.996,-2.12,-7.38,-3.25,0.0,0.0,0.0,1500,1500,1500,1000,1500,1000,1000,1500,40,40,40,40,40,40,85,45,0
1779380885.491,3.73,2250,114,436,68,0,0.00,-1.7,-0.9,109,0.004,-0.023,0.994,1.38,-0.75,-4.12,0.0,0.0,0.0,1500,1500,1500,1000,1500,1000,1000,1500,40,40,40,40,40,40,85,45,0
1779380886.710,3.73,2250,114,436,68,0,0.00,-1.7,-0.9,109,0.004,-0.023,0.994,1.00,2.88,-5.38,0.0,0.0,0.0,1500,1500,1500,1000,1500,1000,1000,1500,40,40,40,40,40,40,85,45,0
1779380887.911,3.73,2250,115,435,68,0,-0.01,-1.6,-0.9,108,0.004,-0.020,0.996,-1.75,0.62,-1.25,0.0,0.0,0.0,1500,1500,1500,1000,1500,1000,1000,1500,40,40,40,40,40,40,85,45,0
1779380889.135,3.73,2250,116,434,68,0,0.01,-1.6,-1.0,109,0.004,-0.021,0.994,-1.62,1.12,-2.00,0.0,0.0,0.0,1500,1476,1500,1000,1500,1000,1000,1500,40,40,40,40,40,40,85,45,0
1779380890.304,3.73,2250,117,433,68,0,0.01,-1.5,-0.9,109,0.004,-0.027,0.992,-0.38,2.75,-3.00,0.0,0.0,0.0,1500,1334,1500,1000,1500,1000,1000,1500,40,40,40,40,40,40,85,45,0
1779380891.509,3.73,2299,118,432,67,0,-0.01,-1.6,-0.9,108,0.006,-0.027,0.994,-0.50,-1.12,-2.75,0.0,0.0,0.0,1500,1294,1500,1000,1500,1000,1000,1500,40,40,40,40,40,40,85,45,0
1779380892.686,3.73,2299,118,432,67,0,0.00,-1.6,-0.9,108,0.006,-0.025,0.994,2.00,1.25,4.12,0.0,0.0,0.0,1500,1247,1500,1000,1500,1000,1000,1500,40,40,40,40,40,40,85,45,0
1779380893.903,3.73,2299,119,431,67,0,0.00,-1.7,-1.0,109,0.006,-0.027,0.996,-1.25,1.12,2.50,0.0,0.0,0.0,1500,1500,1500,1000,1500,1000,1000,1500,40,40,40,40,40,40,85,45,0
1779380895.115,3.73,2299,119,431,67,0,0.00,-1.7,-1.0,109,0.008,-0.025,0.994,-0.62,0.50,-3.63,0.0,0.0,0.0,1500,1500,1500,1000,1500,1000,1000,1500,40,40,40,40,40,40,85,45,0
1779380896.309,3.73,2250,121,429,67,0,0.03,-1.5,-0.9,107,0.004,-0.027,0.996,1.62,0.25,1.12,0.0,0.0,0.0,1500,1500,1500,1000,1500,1000,1000,1500,40,40,40,40,40,40,85,45,0
1779380897.503,3.73,2250,122,428,67,0,0.05,-1.5,-1.0,108,0.006,-0.025,0.996,2.62,5.88,3.12,0.0,0.0,0.0,1500,1500,1500,1000,1500,1000,1000,1500,40,40,40,40,40,40,85,45,0
1779380898.709,3.73,2250,122,428,67,0,0.05,-1.5,-1.0,108,0.006,-0.025,0.996,2.62,5.88,3.12,0.0,0.0,0.0,1500,1500,1500,1000,1500,1000,1000,1500,40,40,40,40,40,40,85,45,0
1779380899.888,3.73,2200,123,427,67,0,0.00,-1.5,-0.9,110,0.004,-0.027,0.996,-3.00,-3.12,7.00,0.0,0.0,0.0,1500,1500,1500,1800,1500,1000,1000,1500,40,40,40,40,40,40,85,45,0
1779380901.078,3.81,649,123,427,70,0,0.25,-1.5,-0.7,114,0.006,-0.025,0.996,-0.25,-0.25,-0.38,0.0,0.0,0.0,1500,1500,1500,1800,1500,1000,1000,1500,40,40,40,40,40,40,85,45,0
1779380902.248,3.81,499,123,427,70,0,0.32,-1.5,-0.8,114,0.006,-0.025,0.996,-0.62,-0.38,-0.50,0.0,0.0,0.0,1500,1500,1500,1800,1500,1000,1000,1500,40,40,40,40,40,40,85,45,0
1779380903.431,3.81,499,123,427,70,0,0.34,-1.6,-0.9,115,0.006,-0.025,0.996,-0.62,0.25,0.12,0.0,0.0,0.0,1500,1500,1500,1800,1500,1000,1000,1500,40,40,40,40,40,40,85,45,0
1779380904.606,3.70,4150,124,426,66,0,0.43,-0.3,1.0,114,0.006,-0.020,1.037,2.62,-29.50,-17.00,0.0,0.0,0.0,1500,1500,1500,1800,1500,1000,1000,1500,40,40,40,40,40,40,85,45,0
1779380905.798,3.61,5650,128,422,60,0,1.75,-1.5,-1.0,115,0.043,-0.020,1.025,5.00,-18.75,8.62,0.0,0.0,0.0,1500,1500,1500,1800,1500,1000,1000,1500,40,40,40,40,40,40,85,45,0
1779380907.006,3.53,4650,129,421,59,0,1.44,63.1,56.3,116,-0.062,0.047,0.133,-50.00,18.38,-14.00,0.0,0.0,0.0,1500,1500,1500,1800,1500,1000,1000,1500,40,40,40,40,40,40,85,45,0
1779380908.167,3.63,2500,129,421,63,0,0.98,58.3,52.9,-170,-0.670,0.746,0.328,-129.00,119.75,214.12,0.0,0.0,0.0,1500,1500,1500,1300,1500,1000,1000,1200,40,40,40,40,40,40,85,45,0
1779380909.312,3.72,1450,130,420,66,0,-0.16,24.2,63.9,-148,-0.896,0.184,0.400,-0.38,-0.12,1.25,0.0,0.0,0.0,1500,1500,1500,1300,1500,1000,1000,1200,40,40,40,40,40,40,85,45,0
1779380910.469,3.81,499,130,420,69,0,-0.61,23.6,63.9,-147,-0.896,0.184,0.400,-0.25,-0.62,0.50,0.0,0.0,0.0,1500,1500,1500,1300,1500,1000,1000,1200,40,40,40,40,40,40,85,45,0
1779380911.644,3.81,499,130,420,69,0,-0.62,23.2,64.0,-147,-0.896,0.184,0.402,0.12,0.25,0.25,0.0,0.0,0.0,1500,1500,1500,1300,1500,1000,1000,1200,40,40,40,40,40,40,85,45,0
1779380912.819,3.73,2400,131,419,66,0,-0.65,5.2,49.4,-100,-0.736,0.070,0.670,1.38,-4.75,7.13,0.0,0.0,0.0,1500,1500,1500,1300,1500,1000,1000,1200,40,40,40,40,40,40,85,45,0
1779380913.991,3.71,749,132,418,66,0,-0.37,-2.2,32.3,-90,-0.531,-0.014,0.846,0.38,0.00,0.38,0.0,0.0,0.0,1500,1500,1500,1300,1500,1000,1000,1200,40,40,40,40,40,40,85,45,0
1779380915.175,3.71,600,132,418,66,0,-0.35,-2.3,32.3,-90,-0.531,-0.014,0.846,-0.12,-0.25,0.25,0.0,0.0,0.0,1500,1500,1500,1300,1500,1000,1000,1200,40,40,40,40,40,40,85,45,0
1779380916.339,3.81,499,132,418,69,0,-0.15,-1.1,32.0,-91,-0.531,-0.014,0.848,0.38,0.25,0.12,0.0,0.0,0.0,1500,1500,1500,1300,1500,1000,1000,1200,40,40,40,40,40,40,85,45,0
1779380917.510,3.81,499,132,418,69,0,0.04,-0.9,32.0,-90,-0.531,-0.014,0.848,-0.50,-0.38,0.12,0.0,0.0,0.0,1500,1500,1500,1300,1500,1000,1000,1200,40,40,40,40,40,40,85,45,0
1779380918.670,3.81,499,132,418,69,0,0.04,-0.9,32.0,-90,-0.531,-0.014,0.848,-0.50,-0.38,0.12,0.0,0.0,0.0,1500,1500,1500,1300,1500,1000,1000,1200,40,40,40,40,40,40,85,45,0
1779380919.820,3.81,499,132,418,69,0,0.13,-0.6,31.8,-91,-0.525,-0.014,0.859,-1.38,-0.88,0.75,0.0,0.0,0.0,1500,1500,1500,1300,1500,1000,1000,1200,40,40,40,40,40,40,85,45,0
1779380920.987,3.81,499,133,417,69,0,1.19,4.2,46.9,-132,-0.707,0.002,0.672,118.88,38.75,42.50,0.0,0.0,0.0,1500,1500,1500,1300,1500,1000,1000,1200,40,40,40,40,40,40,85,45,0
1779380922.159,3.81,499,133,417,69,0,1.19,4.2,46.9,-132,-0.707,0.002,0.672,118.88,38.75,42.50,0.0,0.0,0.0,1500,1500,1500,1300,1500,1000,1000,1200,40,40,40,40,40,40,85,45,0
1779380923.334,3.81,499,133,417,69,0,1.76,63.5,70.9,-169,-0.752,0.230,0.076,40.62,37.75,-135.75,0.0,0.0,0.0,1500,1500,1500,1300,1500,1000,1000,1200,40,40,40,40,40,40,85,45,0
1779380924.485,3.81,499,133,417,69,0,1.76,63.5,70.9,-169,-0.752,0.230,0.076,40.62,37.75,-135.75,0.0,0.0,0.0,1500,1500,1500,1300,1500,1000,1000,1200,40,40,40,40,40,40,85,45,0
1779380925.634,3.81,499,133,417,69,0,1.76,63.5,70.9,-169,-0.752,0.230,0.076,40.62,37.75,-135.75,0.0,0.0,0.0,1500,1500,1500,1300,1500,1000,1000,1200,40,40,40,40,40,40,85,45,0
1779380926.826,3.81,499,133,417,69,0,1.76,63.5,70.9,-169,-0.752,0.230,0.076,40.62,37.75,-135.75,0.0,0.0,0.0,1500,1500,1500,1300,1500,1000,1000,1200,40,40,40,40,40,40,85,45,0
1779380927.995,3.81,499,133,417,69,0,1.76,63.5,70.9,-169,-0.752,0.230,0.076,40.62,37.75,-135.75,0.0,0.0,0.0,1500,1500,1500,1300,1500,1000,1000,1200,40,40,40,40,40,40,85,45,0
1779380929.165,3.81,499,133,417,69,0,1.76,63.5,70.9,-169,-0.752,0.230,0.076,40.62,37.75,-135.75,0.0,0.0,0.0,1500,1500,1500,1300,1500,1000,1000,1200,40,40,40,40,40,40,85,45,0
1779380930.353,3.81,499,133,417,69,0,1.76,63.5,70.9,-169,-0.752,0.230,0.076,40.62,37.75,-135.75,0.0,0.0,0.0,1500,1500,1500,1300,1500,1000,1000,1200,40,40,40,40,40,40,85,45,0
1779380931.542,3.81,499,133,417,69,0,1.76,63.5,70.9,-169,-0.752,0.230,0.076,40.62,37.75,-135.75,0.0,0.0,0.0,1500,1500,1500,1300,1500,1000,1000,1200,40,40,40,40,40,40,85,45,0
1779380932.736,3.81,499,133,417,69,0,1.76,63.5,70.9,-169,-0.752,0.230,0.076,40.62,37.75,-135.75,0.0,0.0,0.0,1500,1500,1500,1300,1500,1000,1000,1200,40,40,40,40,40,40,85,45,0
1779380933.911,3.81,499,133,417,69,0,1.76,63.5,70.9,-169,-0.752,0.230,0.076,40.62,37.75,-135.75,0.0,0.0,0.0,1500,1500,1500,1300,1500,1000,1000,1200,40,40,40,40,40,40,85,45,0
1779380935.100,3.81,499,133,417,69,0,1.76,63.5,70.9,-169,-0.752,0.230,0.076,40.62,37.75,-135.75,0.0,0.0,0.0,1500,1500,1500,1300,1500,1000,1000,1200,40,40,40,40,40,40,85,45,0
1779380936.286,3.81,499,133,417,69,0,1.76,63.5,70.9,-169,-0.752,0.230,0.076,40.62,37.75,-135.75,0.0,0.0,0.0,1500,1500,1500,1300,1500,1000,1000,1200,40,40,40,40,40,40,85,45,0
1779380937.474,3.81,499,133,417,69,0,1.76,63.5,70.9,-169,-0.752,0.230,0.076,40.62,37.75,-135.75,0.0,0.0,0.0,1500,1500,1500,1300,1500,1000,1000,1200,40,40,40,40,40,40,85,45,0
1779380938.667,3.81,499,133,417,69,0,1.76,63.5,70.9,-169,-0.752,0.230,0.076,40.62,37.75,-135.75,0.0,0.0,0.0,1500,1500,1500,1300,1500,1000,1000,1200,40,40,40,40,40,40,85,45,0
1779380939.848,3.81,499,133,417,69,0,1.76,63.5,70.9,-169,-0.752,0.230,0.076,40.62,37.75,-135.75,0.0,0.0,0.0,1500,1500,1500,1300,1500,1000,1000,1200,40,40,40,40,40,40,85,45,0
1779380941.040,3.81,499,133,417,69,0,1.76,63.5,70.9,-169,-0.752,0.230,0.076,40.62,37.75,-135.75,0.0,0.0,0.0,1500,1500,1500,1300,1500,1000,1000,1200,40,40,40,40,40,40,85,45,0
1779380942.239,3.81,499,133,417,69,0,1.76,63.5,70.9,-169,-0.752,0.230,0.076,40.62,37.75,-135.75,0.0,0.0,0.0,1500,1500,1500,1300,1500,1000,1000,1200,40,40,40,40,40,40,85,45,0
1779380943.422,3.81,499,133,417,69,0,1.76,63.5,70.9,-169,-0.752,0.230,0.076,40.62,37.75,-135.75,0.0,0.0,0.0,1500,1500,1500,1300,1500,1000,1000,1200,40,40,40,40,40,40,85,45,0
1779380944.622,3.81,499,133,417,69,0,1.76,63.5,70.9,-169,-0.752,0.230,0.076,40.62,37.75,-135.75,0.0,0.0,0.0,1500,1500,1500,1300,1500,1000,1000,1200,40,40,40,40,40,40,85,45,0
1779380945.785,3.81,499,133,417,69,0,1.76,63.5,70.9,-169,-0.752,0.230,0.076,40.62,37.75,-135.75,0.0,0.0,0.0,1500,1500,1500,1300,1500,1000,1000,1200,40,40,40,40,40,40,85,45,0
1779380946.961,3.81,499,133,417,69,0,1.76,63.5,70.9,-169,-0.752,0.230,0.076,40.62,37.75,-135.75,0.0,0.0,0.0,1500,1500,1500,1300,1500,1000,1000,1200,40,40,40,40,40,40,85,45,0
1779380948.142,3.81,499,133,417,69,0,1.76,63.5,70.9,-169,-0.752,0.230,0.076,40.62,37.75,-135.75,0.0,0.0,0.0,1500,1500,1500,1300,1500,1000,1000,1200,40,40,40,40,40,40,85,45,0
1779380949.325,3.81,499,133,417,69,0,1.76,63.5,70.9,-169,-0.752,0.230,0.076,40.62,37.75,-135.75,0.0,0.0,0.0,1500,1500,1500,1300,1500,1000,1000,1200,40,40,40,40,40,40,85,45,0
1779380950.516,3.81,499,133,417,69,0,1.76,63.5,70.9,-169,-0.752,0.230,0.076,40.62,37.75,-135.75,0.0,0.0,0.0,1500,1500,1500,1300,1500,1000,1000,1200,40,40,40,40,40,40,85,45,0
1779380951.695,3.81,499,133,417,69,0,1.76,63.5,70.9,-169,-0.752,0.230,0.076,40.62,37.75,-135.75,0.0,0.0,0.0,1500,1500,1500,1300,1500,1000,1000,1200,40,40,40,40,40,40,85,45,0
1779380952.871,3.81,499,133,417,69,0,1.76,63.5,70.9,-169,-0.752,0.230,0.076,40.62,37.75,-135.75,0.0,0.0,0.0,1500,1500,1500,1300,1500,1000,1000,1200,40,40,40,40,40,40,85,45,0
1779380954.043,3.81,499,133,417,69,0,1.76,63.5,70.9,-169,-0.752,0.230,0.076,40.62,37.75,-135.75,0.0,0.0,0.0,1500,1500,1500,1300,1500,1000,1000,1200,40,40,40,40,40,40,85,45,0
1779380955.224,3.81,499,133,417,69,0,1.76,63.5,70.9,-169,-0.752,0.230,0.076,40.62,37.75,-135.75,0.0,0.0,0.0,1500,1500,1500,1300,1500,1000,1000,1200,40,40,40,40,40,40,85,45,0
1779380956.397,3.81,499,133,417,69,0,1.76,63.5,70.9,-169,-0.752,0.230,0.076,40.62,37.75,-135.75,0.0,0.0,0.0,1500,1500,1500,1300,1500,1000,1000,1200,40,40,40,40,40,40,85,45,0
1779380957.575,3.81,499,133,417,69,0,1.76,63.5,70.9,-169,-0.752,0.230,0.076,40.62,37.75,-135.75,0.0,0.0,0.0,1500,1500,1500,1300,1500,1000,1000,1200,40,40,40,40,40,40,85,45,0
1779380958.753,3.81,499,133,417,69,0,1.76,63.5,70.9,-169,-0.752,0.230,0.076,40.62,37.75,-135.75,0.0,0.0,0.0,1500,1500,1500,1300,1500,1000,1000,1200,40,40,40,40,40,40,85,45,0
1779380959.941,3.81,499,133,417,69,0,1.76,63.5,70.9,-169,-0.752,0.230,0.076,40.62,37.75,-135.75,0.0,0.0,0.0,1500,1500,1500,1300,1500,1000,1000,1200,40,40,40,40,40,40,85,45,0
1779380961.114,3.81,499,133,417,69,0,1.76,63.5,70.9,-169,-0.752,0.230,0.076,40.62,37.75,-135.75,0.0,0.0,0.0,1500,1500,1500,1300,1500,1000,1000,1200,40,40,40,40,40,40,85,45,0
