timestamp,battery,current_ma,mah_drawn,mah_remain,soc,auto_land,alt,roll,pitch,yaw,acc_x,acc_y,acc_z,gyro_x,gyro_y,gyro_z,mag_x,mag_y,mag_z,rc_roll,rc_pitch,rc_yaw,rc_throttle,rc_aux1,rc_aux2,rc_aux3,rc_aux4,pid_roll_p,pid_roll_i,pid_roll_d,pid_pitch_p,pid_pitch_i,pid_pitch_d,pid_yaw_p,pid_yaw_i,pid_yaw_d
1779439347.189,3.53,2150,160,240,44,0,0.00,-0.2,0.8,-178,-0.016,0.000,1.002,1.00,0.25,3.00,0.0,0.0,0.0,1500,1500,1500,1000,1500,1000,1000,1500,40,40,40,40,40,40,85,45,0
1779439348.354,3.53,2150,160,240,44,0,-0.02,-0.2,0.8,-178,-0.016,0.000,0.996,3.50,0.88,-1.62,0.0,0.0,0.0,1500,1500,1500,1000,1500,1000,1000,1500,40,40,40,40,40,40,85,45,0
1779439349.506,3.53,2150,161,239,43,0,-0.01,-0.1,0.8,-179,-0.021,0.012,0.994,-2.12,-0.38,1.75,0.0,0.0,0.0,1500,1500,1500,1000,1500,1000,1000,1500,40,40,40,40,40,40,85,45,0
1779439350.687,3.53,2150,161,239,43,0,-0.02,-0.2,0.8,-179,-0.012,-0.004,1.000,1.12,-0.88,-3.63,0.0,0.0,0.0,1500,1500,1500,1000,1500,1000,1000,1500,40,40,40,40,40,40,85,45,0
1779439351.870,3.53,2150,162,238,43,0,-0.01,-0.3,0.8,179,-0.016,0.002,0.996,-1.12,0.38,3.50,0.0,0.0,0.0,1500,1500,1500,1000,1500,1000,1000,1500,40,40,40,40,40,40,85,45,0
1779439353.040,3.53,2150,163,237,43,0,0.01,-0.4,0.7,178,-0.020,0.008,0.996,-2.62,-0.25,0.62,0.0,0.0,0.0,1500,1500,1500,1000,1500,1000,1000,1500,40,40,40,40,40,40,85,45,0
1779439354.227,3.53,2150,163,237,43,0,-0.01,-0.5,0.7,178,-0.016,0.004,0.998,-2.75,-0.38,0.75,0.0,0.0,0.0,1500,1500,1500,1000,1500,1000,1000,1500,40,40,40,40,40,40,85,45,0
1779439355.389,3.53,2150,164,236,43,0,0.01,-0.4,0.7,177,-0.016,0.002,1.000,1.62,1.25,1.75,0.0,0.0,0.0,1500,1500,1500,1000,1500,1000,1000,1500,40,40,40,40,40,40,85,45,0
1779439356.550,3.53,2150,165,235,43,0,0.01,-0.3,0.8,176,-0.021,0.004,0.996,-0.50,0.50,1.50,0.0,0.0,0.0,1500,1500,1500,1000,1500,1000,1000,1500,40,40,40,40,40,40,85,45,0
1779439357.745,3.53,2150,166,234,43,0,0.00,-0.4,0.8,175,-0.018,0.004,0.996,0.50,0.38,0.12,0.0,0.0,0.0,1500,1500,1500,1000,1500,1000,1000,1500,40,40,40,40,40,40,85,45,0
1779439358.925,3.53,2150,166,234,43,0,0.00,-1.2,-2.5,174,0.037,-0.014,0.996,-29.00,-53.00,-15.50,0.0,0.0,0.0,1500,1500,1500,1000,1500,1000,1000,1500,40,40,40,40,40,40,85,45,0
1779439360.092,3.53,2150,166,234,43,0,-0.01,-3.5,-4.5,175,0.043,-0.021,0.979,-64.12,-35.62,-8.25,0.0,0.0,0.0,1500,1500,1500,1000,1500,1000,1000,1500,40,40,40,40,40,40,85,45,0
1779439361.281,3.53,2049,168,232,43,0,-0.04,19.8,-5.4,-175,0.088,0.379,0.951,-2.38,-12.12,-8.25,0.0,0.0,0.0,1500,1500,1500,1000,1500,1000,1000,1500,40,40,40,40,40,40,85,45,0
1779439362.453,3.53,2150,168,232,43,0,-0.05,1.3,-10.3,-175,0.141,0.045,1.008,-8.12,-23.88,-25.88,0.0,0.0,0.0,1500,1500,1500,1000,1500,1000,1000,1500,40,40,40,40,40,40,85,45,0
1779439363.650,3.43,2299,169,231,39,0,-0.10,21.4,-21.5,-177,0.078,0.006,0.373,-80.88,-55.12,116.75,0.0,0.0,0.0,1500,1500,1500,1000,1500,1000,1000,1500,40,40,40,40,40,40,85,45,0
1779439364.845,3.52,2200,170,230,39,0,-0.74,-2.7,-7.7,180,0.109,-0.047,0.990,-0.25,-1.50,4.88,0.0,0.0,0.0,1500,1500,1500,1000,1500,1000,1000,1500,40,40,40,40,40,40,85,45,0
1779439366.005,3.53,2250,170,230,39,0,-0.95,-2.8,-7.5,180,0.107,-0.049,0.990,1.50,-5.25,3.00,0.0,0.0,0.0,1500,1500,1500,1000,1500,1000,1000,1500,40,40,40,40,40,40,85,45,0
1779439367.174,3.53,2349,171,229,39,0,-0.91,1.3,-13.3,177,0.213,-0.031,0.949,20.75,17.12,-6.12,0.0,0.0,0.0,1500,1500,1500,1000,1500,1000,1000,1500,40,40,40,40,40,40,85,45,0
1779439368.335,3.53,2049,172,228,39,0,-0.81,-8.2,-12.4,-178,0.213,-0.066,0.959,-11.50,10.00,-56.50,0.0,0.0,0.0,1500,1500,1500,1000,1500,1000,1000,1500,40,40,40,40,40,40,85,45,0
1779439369.503,3.53,2099,172,228,39,0,-0.66,6.0,-9.5,-175,0.164,0.082,0.996,55.62,2.88,-21.88,0.0,0.0,0.0,1500,1500,1500,1000,1500,1000,1000,1500,40,40,40,40,40,40,85,45,0
1779439370.684,3.53,2150,173,227,39,0,-0.52,1.4,-9.4,-177,0.160,0.035,0.967,-74.50,9.50,31.88,0.0,0.0,0.0,1500,1500,1500,1000,1500,1000,1000,1500,40,40,40,40,40,40,85,45,0
1779439371.866,3.53,2400,174,226,39,0,-0.33,-6.4,-2.0,170,0.049,-0.109,1.002,-20.25,33.12,26.62,0.0,0.0,0.0,1500,1500,1500,1000,1500,1000,1000,1500,40,40,40,40,40,40,85,45,0
1779439373.037,3.53,2099,175,225,39,0,-0.12,2.2,-2.2,168,0.025,0.049,0.994,3.38,-7.75,-2.50,0.0,0.0,0.0,1500,1500,1500,1000,1500,1000,1000,1500,40,40,40,40,40,40,85,45,0
1779439374.203,3.53,2150,175,225,39,0,0.03,8.3,-4.6,173,0.070,0.203,0.979,-93.62,7.50,8.75,0.0,0.0,0.0,1500,1500,1500,1000,1500,1000,1000,1500,40,40,40,40,40,40,85,45,0
1779439375.395,3.53,2250,176,224,39,0,0.16,-15.1,-3.7,165,0.061,-0.236,0.971,-41.88,-10.38,17.12,0.0,0.0,0.0,1500,1500,1500,1000,1500,1000,1000,1500,40,40,40,40,40,40,85,45,0
1779439376.558,3.53,2150,177,223,39,0,0.25,-6.7,-5.3,165,0.084,-0.143,0.984,99.88,-19.25,-23.88,0.0,0.0,0.0,1500,1500,1500,1000,1500,1000,1000,1500,40,40,40,40,40,40,85,45,0
1779439377.757,3.53,2049,177,223,39,0,0.32,14.4,-6.2,174,0.113,0.244,0.965,-13.38,-0.50,3.63,0.0,0.0,0.0,1500,1500,1500,1000,1500,1000,1000,1500,40,40,40,40,40,40,85,45,0
1779439378.951,3.43,2349,178,222,38,0,0.38,-0.7,-12.4,165,0.143,-0.100,0.873,-41.25,-57.12,28.00,0.0,0.0,0.0,1500,1500,1500,1000,1500,1000,1000,1500,40,40,40,40,40,40,85,45,0
1779439380.147,3.43,2250,178,222,38,0,0.34,-4.5,-6.4,164,0.170,-0.076,1.051,-6.50,-9.00,-9.12,0.0,0.0,0.0,1500,1500,1500,1000,1500,1000,1000,1500,40,40,40,40,40,40,85,45,0
1779439381.345,3.53,2200,179,221,38,0,0.28,-4.2,-8.6,161,0.154,-0.062,0.980,0.25,3.50,-3.38,0.0,0.0,0.0,1500,1500,1500,1000,1500,1000,1000,1500,40,40,40,40,40,40,85,45,0
1779439382.492,3.53,2099,180,220,38,0,0.25,-4.1,-8.3,161,0.148,-0.070,0.984,-3.12,0.50,-6.00,0.0,0.0,0.0,1500,1500,1500,1000,1500,1000,1000,1500,40,40,40,40,40,40,85,45,0
1779439383.850,3.53,2150,181,219,38,0,0.26,-3.9,-7.9,160,0.148,-0.057,0.984,-0.88,-2.25,3.38,0.0,0.0,0.0,1500,1500,1500,1000,1500,1000,1000,1500,40,40,40,40,40,40,85,45,0
1779439385.018,3.53,2200,181,219,38,0,0.27,-8.2,-7.3,158,0.164,-0.086,0.975,-19.50,3.00,18.62,0.0,0.0,0.0,1500,1500,1500,1000,1500,1000,1000,1500,40,40,40,40,40,40,85,45,0
1779439386.178,3.53,2299,182,218,38,0,0.24,-9.3,-2.6,150,0.068,-0.152,0.986,20.38,40.00,2.38,0.0,0.0,0.0,1500,1500,1500,1000,1500,1000,1000,1500,40,40,40,40,40,40,85,45,0
1779439387.324,3.53,1999,183,217,38,0,0.13,-0.6,1.2,160,-0.020,0.004,0.996,-15.12,-11.88,-2.62,0.0,0.0,0.0,1500,1500,1500,1000,1500,1000,1000,1500,40,40,40,40,40,40,85,45,0
1779439388.477,3.53,2150,183,217,38,0,0.03,-0.9,0.8,158,-0.014,-0.002,0.994,0.50,10.50,-5.62,0.0,0.0,0.0,1500,1500,1500,1000,1500,1000,1000,1500,40,40,40,40,40,40,85,45,0
1779439389.633,3.53,2099,184,216,38,0,0.05,-0.6,-3.3,160,0.049,-0.018,0.965,-24.12,-12.75,5.38,0.0,0.0,0.0,1500,1500,1500,1000,1500,1000,1000,1500,40,40,40,40,40,40,85,45,0
1779439390.811,3.53,2150,185,215,38,0,0.00,0.0,-3.0,159,0.029,0.018,0.982,7.88,-2.00,20.12,0.0,0.0,0.0,1500,1500,1500,1000,1500,1000,1000,1500,40,40,40,40,40,40,85,45,0
1779439391.955,3.53,2150,185,215,38,0,0.00,0.7,-1.1,158,0.037,-0.004,0.994,-15.75,33.00,3.75,0.0,0.0,0.0,1500,1500,1500,1000,1500,1000,1000,1500,40,40,40,40,40,40,85,45,0
1779439393.123,3.53,2299,186,214,38,0,0.00,1.7,-2.7,151,0.037,0.074,0.982,-51.75,2.88,36.88,0.0,0.0,0.0,1500,1500,1500,1000,1500,1000,1000,1500,40,40,40,40,40,40,85,45,0
1779439394.299,3.53,2299,187,213,38,0,-0.01,-7.5,-0.0,135,0.004,-0.121,0.980,-40.12,24.12,78.75,0.0,0.0,0.0,1500,1500,1500,1000,1500,1000,1000,1500,40,40,40,40,40,40,85,45,0
1779439395.434,3.53,2200,188,212,38,0,-0.04,-2.3,-3.3,128,0.064,-0.012,1.006,-44.12,31.38,-4.75,0.0,0.0,0.0,1500,1500,1500,1000,1500,1000,1000,1500,40,40,40,40,40,40,85,45,0
1779439396.570,3.53,2150,188,212,38,0,-0.07,-8.2,1.6,128,-0.027,-0.145,0.980,32.12,6.25,-5.88,0.0,0.0,0.0,1500,1500,1500,1000,1500,1000,1000,1500,40,40,40,40,40,40,85,45,0
1779439397.716,3.53,2150,188,212,38,0,-0.07,-8.2,1.6,128,-0.027,-0.145,0.980,32.12,6.25,-5.88,0.0,0.0,0.0,1500,1500,1500,1000,1500,1000,1000,1500,40,40,40,40,40,40,85,45,0
1779439398.860,3.53,2150,188,212,38,0,-0.07,-7.9,1.7,128,-0.025,-0.145,0.982,27.25,7.13,4.62,0.0,0.0,0.0,1500,1500,1500,1000,1500,1000,1000,1500,40,40,40,40,40,40,85,45,0
1779439400.011,3.53,2099,190,210,38,0,-0.07,-13.3,2.3,128,-0.041,-0.230,0.977,-14.12,0.25,-7.75,0.0,0.0,0.0,1500,1500,1500,1000,1500,1000,1000,1500,40,40,40,40,40,40,85,45,0
1779439401.158,3.53,2099,190,210,38,0,-0.07,-13.3,2.3,128,-0.041,-0.230,0.977,-14.12,0.25,-7.75,0.0,0.0,0.0,1500,1500,1500,1000,1500,1000,1000,1500,40,40,40,40,40,40,85,45,0
1779439402.306,3.53,2099,191,209,38,0,-0.01,-0.2,-1.1,128,0.016,-0.020,1.010,33.88,-15.25,-2.25,0.0,0.0,0.0,1500,1500,1500,1000,1500,1000,1000,1500,40,40,40,40,40,40,85,45,0
1779439403.449,3.53,2099,192,208,38,0,-0.01,-2.8,0.4,128,-0.002,-0.027,0.982,-12.25,15.75,2.62,0.0,0.0,0.0,1500,1500,1500,1000,1500,1000,1000,1500,40,40,40,40,40,40,85,45,0
1779439404.616,3.53,2150,193,207,38,0,0.00,-7.9,1.0,128,-0.020,-0.137,0.992,2.38,2.25,-10.50,0.0,0.0,0.0,1500,1500,1500,1000,1500,1000,1000,1500,40,40,40,40,40,40,85,45,0
1779439405.781,3.53,2150,193,207,38,0,0.00,-7.9,1.0,128,-0.020,-0.137,0.992,2.38,2.25,-10.50,0.0,0.0,0.0,1500,1500,1500,1000,1500,1000,1000,1500,40,40,40,40,40,40,85,45,0
1779439406.956,3.53,2200,194,206,38,0,0.02,-28.6,16.1,130,-0.225,-0.342,0.777,-117.00,18.50,-28.50,0.0,0.0,0.0,1500,1500,1500,1000,1500,1000,1000,1500,40,40,40,40,40,40,85,45,0
1779439408.113,3.53,2150,195,205,37,0,-0.03,0.0,1.5,130,-0.008,0.000,1.000,0.38,0.12,-1.87,0.0,0.0,0.0,1500,1500,1500,1000,1500,1000,1000,1500,40,40,40,40,40,40,85,45,0
1779439409.291,3.53,2150,195,205,37,0,-0.04,0.0,1.4,130,-0.014,0.012,0.994,-2.12,-1.38,1.38,0.0,0.0,0.0,1500,1500,1500,1000,1500,1000,1000,1500,40,40,40,40,40,40,85,45,0
1779439410.468,3.53,2150,196,204,37,0,0.03,-0.0,1.2,129,-0.014,0.010,1.000,-4.62,-2.38,2.38,0.0,0.0,0.0,1500,1500,1500,1000,1500,1000,1000,1500,40,40,40,40,40,40,85,45,0
1779439411.673,3.53,2150,197,203,37,0,0.06,-0.1,1.1,129,-0.014,0.012,0.998,-1.25,-0.88,-2.75,0.0,0.0,0.0,1500,1500,1500,1000,1500,1000,1000,1500,40,40,40,40,40,40,85,45,0
1779439412.874,3.53,2150,197,203,37,0,0.00,0.0,1.0,128,-0.014,0.008,0.998,-0.75,0.75,3.88,0.0,0.0,0.0,1500,1500,1500,1000,1500,1000,1000,1500,40,40,40,40,40,40,85,45,0
1779439414.099,3.53,2150,198,202,37,0,0.02,-0.2,0.9,128,-0.012,0.010,0.996,-2.38,-1.75,0.88,0.0,0.0,0.0,1500,1500,1500,1000,1500,1000,1000,1500,40,40,40,40,40,40,85,45,0
1779439415.275,3.53,2099,199,201,37,0,0.00,-0.4,0.8,128,-0.012,0.006,1.000,-1.38,-0.50,1.50,0.0,0.0,0.0,1500,1500,1500,1000,1500,1000,1000,1500,40,40,40,40,40,40,85,45,0
1779439416.472,3.52,1899,199,201,37,0,0.00,-0.7,0.8,141,0.014,0.021,0.996,-1.87,-1.38,-47.50,0.0,0.0,0.0,1500,1500,1500,1000,1500,1000,1000,1500,40,40,40,40,40,40,85,45,0
1779439417.641,3.53,2049,200,200,37,0,0.00,-0.8,0.5,147,-0.016,0.002,0.994,1.62,2.50,-1.62,0.0,0.0,0.0,1500,1500,1500,1000,1500,1000,1000,1500,40,40,40,40,40,40,85,45,0
1779439418.832,3.53,2099,201,199,37,0,0.00,-0.8,0.6,145,-0.018,0.004,0.994,-2.00,1.87,0.38,0.0,0.0,0.0,1500,1500,1500,1000,1500,1000,1000,1500,40,40,40,40,40,40,85,45,0
1779439420.006,3.53,2099,201,199,37,0,0.00,-0.9,0.5,145,-0.018,0.002,1.002,0.12,-3.75,-2.25,0.0,0.0,0.0,1500,1500,1500,1000,1500,1000,1000,1500,40,40,40,40,40,40,85,45,0
1779439421.185,3.53,2150,202,198,37,0,0.00,-1.0,0.4,145,-0.021,0.010,0.990,0.62,2.75,1.00,0.0,0.0,0.0,1500,1500,1500,1000,1500,1000,1000,1500,40,40,40,40,40,40,85,45,0
1779439422.326,3.53,2150,203,197,37,0,0.01,-1.1,0.5,143,-0.016,0.002,0.998,-1.25,-5.75,-2.38,0.0,0.0,0.0,1500,1500,1500,1000,1500,1000,1000,1500,40,40,40,40,40,40,85,45,0
1779439423.543,3.53,2150,203,197,37,0,0.00,-1.0,0.5,143,-0.021,0.008,1.000,-0.25,2.75,2.75,0.0,0.0,0.0,1500,1500,1500,1000,1500,1000,1000,1500,40,40,40,40,40,40,85,45,0
1779439424.736,3.53,2049,204,196,37,0,0.00,-1.1,0.6,141,-0.020,0.004,1.002,0.38,-4.25,-0.38,0.0,0.0,0.0,1500,1500,1500,1000,1500,1000,1000,1500,40,40,40,40,40,40,85,45,0
1779439425.892,3.53,2099,205,195,37,0,0.00,-1.0,0.5,141,-0.012,0.000,1.000,-2.38,-2.75,-1.25,0.0,0.0,0.0,1500,1500,1500,1000,1500,1000,1000,1500,40,40,40,40,40,40,85,45,0
1779439427.045,3.53,2099,205,195,37,0,0.01,-1.1,0.6,139,-0.012,0.000,0.996,-1.38,-0.62,2.25,0.0,0.0,0.0,1500,1500,1500,1000,1500,1000,1000,1500,40,40,40,40,40,40,85,45,0
1779439428.326,3.53,2099,206,194,37,0,-0.02,-0.6,0.5,139,-0.014,0.000,0.996,-0.38,0.00,-3.00,0.0,0.0,0.0,1500,1500,1500,1000,1500,1000,1000,1500,40,40,40,40,40,40,85,45,0
1779439429.497,3.53,2150,207,193,37,0,-0.02,-0.7,0.7,138,-0.018,0.006,0.996,1.50,0.25,-0.88,0.0,0.0,0.0,1500,1500,1500,1000,1500,1000,1000,1500,40,40,40,40,40,40,85,45,0
1779439430.677,3.53,2099,207,193,37,0,-0.01,-0.6,0.7,137,-0.014,-0.002,1.004,1.38,0.75,2.50,0.0,0.0,0.0,1500,1500,1500,1000,1500,1000,1000,1500,40,40,40,40,40,40,85,45,0
1779439431.840,3.53,2150,208,192,37,0,-0.01,-0.6,0.8,136,-0.010,-0.004,0.998,0.88,-2.88,-3.00,0.0,0.0,0.0,1500,1500,1500,1000,1500,1000,1000,1500,40,40,40,40,40,40,85,45,0
1779439432.997,3.53,2150,209,191,37,0,0.00,-0.6,0.9,134,-0.021,0.008,0.994,-1.00,0.25,3.25,0.0,0.0,0.0,1500,1500,1500,1000,1500,1000,1000,1500,40,40,40,40,40,40,85,45,0
1779439434.156,3.53,2049,209,191,37,0,0.01,-0.5,1.0,134,-0.014,-0.002,1.004,0.25,-1.87,-1.12,0.0,0.0,0.0,1500,1500,1500,1000,1500,1000,1000,1500,40,40,40,40,40,40,85,45,0
1779439435.323,3.53,2099,210,190,37,0,-0.01,-0.7,1.1,133,-0.012,0.000,0.996,0.50,-1.00,-2.88,0.0,0.0,0.0,1500,1500,1500,1000,1500,1000,1000,1500,40,40,40,40,40,40,85,45,0
1779439436.471,3.53,2099,210,190,37,0,-0.01,-0.6,1.1,133,-0.014,0.000,0.996,0.88,4.00,0.88,0.0,0.0,0.0,1500,1500,1500,1000,1500,1000,1000,1500,40,40,40,40,40,40,85,45,0
1779439437.617,3.53,2049,210,190,37,0,-0.01,-0.6,1.1,133,-0.018,0.000,0.996,-0.75,-2.38,-2.00,0.0,0.0,0.0,1500,1500,1500,1000,1500,1000,1000,1500,40,40,40,40,40,40,85,45,0
1779439438.781,3.53,2200,212,188,37,0,0.00,-1.5,-2.2,126,0.033,-0.010,0.994,37.12,-3.38,16.50,0.0,0.0,0.0,1500,1500,1500,1000,1500,1000,1000,1500,40,40,40,40,40,40,85,45,0
1779439439.932,3.53,2200,212,188,37,0,0.00,-3.3,-2.9,127,0.041,-0.045,0.982,-25.88,-15.38,4.50,0.0,0.0,0.0,1500,1500,1500,1000,1500,1000,1000,1500,40,40,40,40,40,40,85,45,0
1779439441.106,3.53,2099,213,187,37,0,0.03,-9.2,-7.9,127,0.154,-0.143,0.971,6.38,4.88,-25.13,0.0,0.0,0.0,1500,1500,1500,1000,1500,1000,1000,1500,40,40,40,40,40,40,85,45,0
1779439442.302,3.53,2150,214,186,37,0,-0.05,-4.7,-5.7,122,0.109,-0.104,1.006,31.75,6.62,24.38,0.0,0.0,0.0,1500,1500,1500,1000,1500,1000,1000,1500,40,40,40,40,40,40,85,45,0
1779439443.468,3.53,2200,215,185,37,0,-0.07,-2.7,-8.6,118,0.148,-0.047,0.990,-22.12,50.25,30.25,0.0,0.0,0.0,1500,1500,1500,1000,1500,1000,1000,1500,40,40,40,40,40,40,85,45,0
1779439444.674,3.53,2099,215,185,37,0,-0.08,-2.6,-6.5,117,0.125,-0.033,0.986,27.75,-19.62,5.12,0.0,0.0,0.0,1500,1500,1500,1000,1500,1000,1000,1500,40,40,40,40,40,40,85,45,0
1779439445.831,3.43,2200,216,184,35,0,-0.07,12.1,-14.8,116,0.270,0.195,0.959,19.38,10.38,-2.38,0.0,0.0,0.0,1500,1500,1500,1000,1500,1000,1000,1500,40,40,40,40,40,40,85,45,0
1779439446.995,3.53,2099,217,183,35,0,-0.06,-1.9,-7.2,117,0.145,0.000,0.980,-46.88,34.38,0.00,0.0,0.0,0.0,1500,1500,1500,1000,1500,1000,1000,1500,40,40,40,40,40,40,85,45,0
1779439448.143,3.43,2200,217,183,35,0,-0.06,-2.2,-9.3,113,0.158,-0.031,0.984,-16.38,-23.50,8.00,0.0,0.0,0.0,1500,1500,1500,1000,1500,1000,1000,1500,40,40,40,40,40,40,85,45,0
1779439449.330,3.53,2200,218,182,35,0,-0.07,8.1,-16.1,115,0.291,0.131,0.932,8.75,9.75,-1.50,0.0,0.0,0.0,1500,1500,1500,1000,1500,1000,1000,1500,40,40,40,40,40,40,85,45,0
1779439450.490,3.53,2200,219,181,35,0,-0.07,10.3,-17.3,117,0.283,0.164,0.916,30.50,-33.25,-5.75,0.0,0.0,0.0,1500,1500,1500,1000,1500,1000,1000,1500,40,40,40,40,40,40,85,45,0
1779439451.669,3.53,2150,219,181,35,0,-0.06,4.2,-15.0,115,0.305,0.092,0.967,-115.63,104.88,9.62,0.0,0.0,0.0,1500,1500,1500,1000,1500,1000,1000,1500,40,40,40,40,40,40,85,45,0
1779439452.855,3.53,2099,220,180,35,0,-0.05,-6.7,-6.8,113,0.123,-0.115,0.980,-9.88,3.00,14.50,0.0,0.0,0.0,1500,1500,1500,1000,1500,1000,1000,1500,40,40,40,40,40,40,85,45,0
1779439454.058,3.53,2150,221,179,35,0,-0.02,-2.5,-5.0,113,0.086,-0.045,1.000,10.50,14.50,5.75,0.0,0.0,0.0,1500,1500,1500,1000,1500,1000,1000,1500,40,40,40,40,40,40,85,45,0
1779439455.222,3.53,2049,221,179,35,0,0.00,-0.2,-6.0,116,0.098,0.014,0.982,-53.38,-8.25,-9.62,0.0,0.0,0.0,1500,1500,1500,1000,1500,1000,1000,1500,40,40,40,40,40,40,85,45,0
1779439456.407,3.53,1950,222,178,35,0,-0.02,-2.4,-2.5,131,0.049,-0.033,0.986,11.25,-0.75,-45.38,0.0,0.0,0.0,1500,1500,1500,1000,1500,1000,1000,1500,40,40,40,40,40,40,85,45,0
1779439457.596,3.43,2099,223,177,34,0,0.01,-0.1,0.9,138,-0.016,0.000,1.000,0.62,-1.50,-2.75,0.0,0.0,0.0,1500,1500,1500,1000,1500,1000,1000,1500,40,40,40,40,40,40,85,45,0
1779439458.867,3.53,2150,223,177,34,0,0.00,-0.1,0.8,137,-0.021,0.006,0.996,2.25,-1.25,-1.25,0.0,0.0,0.0,1500,1500,1500,1000,1500,1000,1000,1500,40,40,40,40,40,40,85,45,0
1779439460.126,3.53,2200,224,176,34,0,0.04,-0.2,0.9,136,-0.018,0.008,0.998,-3.25,-1.50,-0.75,0.0,0.0,0.0,1500,1500,1500,1000,1500,1000,1000,1500,40,40,40,40,40,40,85,45,0
1779439461.267,3.53,2150,225,175,34,0,0.00,-0.2,1.0,135,-0.016,0.002,0.996,-0.25,1.62,1.00,0.0,0.0,0.0,1500,1500,1500,1000,1500,1000,1000,1500,40,40,40,40,40,40,85,45,0
1779439462.506,3.53,2150,225,175,34,0,0.02,-0.3,1.0,134,-0.014,-0.004,0.996,2.12,0.25,1.62,0.0,0.0,0.0,1500,1500,1500,1000,1500,1000,1000,1500,40,40,40,40,40,40,85,45,0
1779439463.679,3.53,2150,225,175,34,0,0.03,-0.3,1.0,134,-0.018,0.002,1.000,-3.25,-1.50,0.38,0.0,0.0,0.0,1500,1500,1500,1000,1500,1000,1000,1500,40,40,40,40,40,40,85,45,0
1779439464.837,3.53,2099,227,173,34,0,-0.02,-0.4,1.0,131,-0.020,0.008,0.994,-1.87,2.50,3.63,0.0,0.0,0.0,1500,1500,1500,1000,1500,1000,1000,1500,40,40,40,40,40,40,85,45,0
1779439466.036,3.53,2150,227,173,34,0,-0.02,-0.4,0.9,131,-0.016,0.004,0.996,-3.00,3.50,1.12,0.0,0.0,0.0,1500,1500,1500,1000,1500,1000,1000,1500,40,40,40,40,40,40,85,45,0
1779439467.188,3.53,2150,228,172,34,0,0.00,-0.5,0.9,130,-0.020,0.004,0.996,1.00,0.75,2.75,0.0,0.0,0.0,1500,1500,1500,1000,1500,1000,1000,1500,40,40,40,40,40,40,85,45,0
1779439468.328,3.53,2099,229,171,34,0,0.00,-0.5,0.9,129,-0.016,0.002,0.996,-3.00,2.12,1.62,0.0,0.0,0.0,1500,1500,1500,1000,1500,1000,1000,1500,40,40,40,40,40,40,85,45,0
1779439469.536,3.53,2099,229,171,34,0,0.00,-0.4,0.9,127,-0.012,0.000,0.998,-2.12,-1.62,0.75,0.0,0.0,0.0,1500,1500,1500,1000,1500,1000,1000,1500,40,40,40,40,40,40,85,45,0
1779439470.708,3.53,2049,230,170,34,0,-0.03,-0.5,0.9,127,-0.012,-0.002,0.996,-0.12,1.00,-1.25,0.0,0.0,0.0,1500,1500,1500,1000,1500,1000,1000,1500,40,40,40,40,40,40,85,45,0
1779439471.860,3.53,2049,230,170,34,0,-0.03,-0.5,0.9,127,-0.012,-0.002,0.996,-0.12,1.00,-1.25,0.0,0.0,0.0,1500,1500,1500,1000,1500,1000,1000,1500,40,40,40,40,40,40,85,45,0
1779439472.998,3.53,2049,230,170,34,0,-0.03,-0.5,0.9,127,-0.010,-0.006,0.998,4.00,-2.00,0.50,0.0,0.0,0.0,1500,1500,1500,1000,1500,1000,1000,1500,40,40,40,40,40,40,85,45,0
1779439474.170,3.53,2099,232,168,34,0,-0.01,-0.5,1.0,125,-0.014,0.002,0.998,-2.12,-1.87,0.12,0.0,0.0,0.0,1500,1500,1500,1000,1500,1000,1000,1500,40,40,40,40,40,40,85,45,0
1779439475.333,3.53,2099,232,168,34,0,0.01,-0.5,1.0,124,-0.020,0.004,0.996,-1.75,-0.75,-2.12,0.0,0.0,0.0,1500,1500,1500,1000,1500,1000,1000,1500,40,40,40,40,40,40,85,45,0
1779439476.881,3.53,2150,233,167,34,0,0.02,-0.5,1.0,122,-0.012,0.000,0.998,-1.25,0.12,2.62,0.0,0.0,0.0,1500,1500,1500,1000,1500,1000,1000,1500,40,40,40,40,40,40,85,45,0
1779439478.207,3.53,2099,234,166,34,0,-0.02,-0.5,1.0,121,-0.018,0.004,0.998,-0.88,1.75,3.63,0.0,0.0,0.0,1500,1500,1500,1000,1500,1000,1000,1500,40,40,40,40,40,40,85,45,0
1779439479.372,3.53,2150,235,165,34,0,-0.02,-0.5,0.9,119,-0.016,0.000,0.992,1.25,2.50,-0.25,0.0,0.0,0.0,1500,1500,1500,1000,1500,1000,1000,1500,40,40,40,40,40,40,85,45,0
1779439480.524,3.53,2150,236,164,34,0,-0.03,-0.5,1.0,119,-0.018,0.000,0.990,-2.12,1.00,-0.12,0.0,0.0,0.0,1500,1500,1500,1000,1500,1000,1000,1500,40,40,40,40,40,40,85,45,0
1779439481.716,3.53,2099,236,164,34,0,-0.02,-0.5,0.9,119,-0.016,0.004,1.002,-2.88,-1.62,0.75,0.0,0.0,0.0,1500,1500,1500,1000,1500,1000,1000,1500,40,40,40,40,40,40,85,45,0
1779439482.873,3.53,2099,236,164,34,0,-0.02,-0.5,0.9,119,-0.018,0.002,1.004,1.00,-2.62,0.00,0.0,0.0,0.0,1500,1500,1500,1000,1500,1000,1000,1500,40,40,40,40,40,40,85,45,0
1779439484.038,3.53,2099,238,162,34,0,-0.01,-0.5,0.9,117,-0.018,0.006,0.994,-1.50,3.25,4.38,0.0,0.0,0.0,1500,1500,1500,1000,1500,1000,1000,1500,40,40,40,40,40,40,85,45,0
1779439485.213,3.53,2150,238,162,34,0,0.03,-0.5,0.9,116,-0.010,-0.004,0.998,0.88,-3.25,-0.75,0.0,0.0,0.0,1500,1500,1500,1000,1500,1000,1000,1500,40,40,40,40,40,40,85,45,0
1779439486.378,3.53,2099,239,161,34,0,0.01,-0.6,0.9,115,-0.010,-0.002,0.998,-0.12,1.38,-0.75,0.0,0.0,0.0,1500,1500,1500,1000,1500,1000,1000,1500,40,40,40,40,40,40,85,45,0
1779439487.558,3.53,2150,240,160,34,0,-0.01,-0.6,0.9,114,-0.018,0.000,0.994,2.62,2.00,-1.62,0.0,0.0,0.0,1500,1500,1500,1000,1500,1000,1000,1500,40,40,40,40,40,40,85,45,0
1779439488.742,3.53,2150,240,160,34,0,0.00,-0.5,1.1,113,-0.018,0.006,0.992,-4.25,-1.87,-0.62,0.0,0.0,0.0,1500,1500,1500,1000,1500,1000,1000,1500,40,40,40,40,40,40,85,45,0
1779439489.926,3.53,2150,241,159,34,0,-0.02,-0.7,1.0,110,-0.021,0.014,0.994,-2.62,-0.25,-3.12,0.0,0.0,0.0,1500,1500,1500,1000,1500,1000,1000,1500,40,40,40,40,40,40,85,45,0
1779439491.065,3.53,2099,242,158,34,0,-0.02,-0.6,0.8,111,-0.020,0.010,0.998,-3.25,0.00,3.63,0.0,0.0,0.0,1500,1500,1500,1000,1500,1000,1000,1500,40,40,40,40,40,40,85,45,0
1779439492.223,3.43,2200,242,158,33,0,0.01,0.3,2.0,114,0.020,0.053,1.031,-3.12,32.50,34.00,0.0,0.0,0.0,1500,1500,1500,1000,1500,1000,1000,1500,40,40,40,40,40,40,85,45,0
1779439493.382,3.53,1999,243,157,33,0,0.01,0.1,0.5,119,-0.006,0.008,1.004,0.88,-0.62,12.12,0.0,0.0,0.0,1500,1500,1500,1000,1500,1000,1000,1500,40,40,40,40,40,40,85,45,0
1779439494.528,3.43,1999,243,157,33,0,0.00,6.8,-3.5,126,0.053,0.109,0.979,-74.50,13.88,25.00,0.0,0.0,0.0,1500,1500,1500,1000,1500,1000,1000,1500,40,40,40,40,40,40,85,45,0
1779439495.714,3.42,1950,244,156,33,0,0.06,17.0,-8.8,134,0.127,0.254,0.926,6.62,-37.50,-70.12,0.0,0.0,0.0,1500,1500,1500,1000,1500,1000,1000,1500,40,40,40,40,40,40,85,45,0
1779439496.875,3.43,2049,245,155,33,0,-0.01,32.3,-11.8,151,0.148,0.523,0.811,-151.25,-13.13,27.25,0.0,0.0,0.0,1500,1500,1500,1000,1500,1000,1000,1500,40,40,40,40,40,40,85,45,0
1779439498.035,3.50,2099,245,155,33,0,-0.06,40.9,-11.7,164,0.227,0.602,0.699,30.50,-39.88,-21.50,0.0,0.0,0.0,1500,1500,1500,1000,1500,1000,1000,1500,40,40,40,40,40,40,85,45,0
1779439499.190,3.43,2450,246,154,32,0,-0.12,54.2,-12.3,171,0.225,0.770,0.590,124.50,-30.50,-32.62,0.0,0.0,0.0,1500,1500,1500,1000,1500,1000,1000,1500,40,40,40,40,40,40,85,45,0
1779439500.360,3.43,2650,247,153,32,0,-0.29,2.6,-3.7,154,0.098,0.029,1.014,-18.00,35.25,8.12,0.0,0.0,0.0,1500,1500,1500,1000,1500,1000,1000,1500,40,40,40,40,40,40,85,45,0
1779439501.511,3.43,2299,247,153,32,0,-0.26,2.6,-2.2,150,0.031,0.016,0.990,-2.12,2.62,8.25,0.0,0.0,0.0,1500,1500,1500,1000,1500,1000,1000,1500,40,40,40,40,40,40,85,45,0
1779439502.668,3.43,2049,248,152,32,0,-0.08,5.1,-6.6,155,0.139,0.092,0.979,-14.38,21.75,-12.88,0.0,0.0,0.0,1500,1500,1500,1000,1500,1000,1000,1500,40,40,40,40,40,40,85,45,0
1779439503.834,3.43,2200,249,151,32,0,-0.03,2.3,-2.5,149,0.033,0.020,1.002,1.38,3.88,-11.50,0.0,0.0,0.0,1500,1500,1500,1000,1500,1000,1000,1500,40,40,40,40,40,40,85,45,0
1779439504.993,3.53,1999,250,150,32,0,0.01,1.1,-2.5,152,0.041,0.000,0.998,15.63,32.62,6.12,0.0,0.0,0.0,1500,1500,1500,1000,1500,1000,1000,1500,40,40,40,40,40,40,85,45,0
1779439506.156,3.43,2099,250,150,32,0,0.03,1.6,-0.5,154,-0.012,0.023,0.992,19.25,-17.88,4.88,0.0,0.0,0.0,1500,1500,1500,1000,1500,1000,1000,1500,40,40,40,40,40,40,85,45,0
1779439507.320,3.43,2200,251,149,32,0,0.07,14.5,-13.4,153,0.123,0.168,1.049,195.62,-127.88,19.00,0.0,0.0,0.0,1500,1500,1500,1000,1500,1000,1000,1500,40,40,40,40,40,40,85,45,0
1779439508.471,3.43,2250,252,148,32,0,0.05,-0.7,-7.4,143,0.111,0.008,0.988,-42.12,28.25,-15.38,0.0,0.0,0.0,1500,1500,1500,1000,1500,1000,1000,1500,40,40,40,40,40,40,85,45,0
1779439509.671,3.43,2200,252,148,32,0,0.08,5.0,-4.1,136,0.082,0.133,0.947,-103.75,65.13,21.88,0.0,0.0,0.0,1500,1500,1500,1000,1500,1000,1000,1500,40,40,40,40,40,40,85,45,0
1779439510.879,3.43,2150,253,147,32,0,-0.04,2.2,-4.7,131,0.104,0.047,0.996,-30.88,13.62,5.88,0.0,0.0,0.0,1500,1500,1500,1000,1500,1000,1000,1500,40,40,40,40,40,40,85,45,0
1779439512.050,3.43,2049,254,146,32,0,-0.06,-4.5,-3.6,130,0.070,-0.049,0.990,-19.25,26.38,-13.75,0.0,0.0,0.0,1500,1500,1500,1000,1500,1000,1000,1500,40,40,40,40,40,40,85,45,0
1779439513.237,3.43,2150,254,146,32,0,-0.05,-4.3,-3.5,129,0.045,-0.061,0.980,9.25,-16.38,14.25,0.0,0.0,0.0,1500,1500,1500,1000,1500,1000,1000,1500,40,40,40,40,40,40,85,45,0
1779439514.396,3.43,2049,255,145,32,0,-0.02,10.8,-12.3,134,0.258,0.213,0.945,9.62,80.00,59.00,0.0,0.0,0.0,1500,1500,1500,1000,1500,1000,1000,1500,40,40,40,40,40,40,85,45,0
1779439515.566,3.43,2299,256,144,32,0,0.03,-5.2,-1.7,122,0.025,-0.088,0.990,9.12,31.38,-9.00,0.0,0.0,0.0,1500,1500,1500,1000,1500,1000,1000,1500,40,40,40,40,40,40,85,45,0
1779439516.741,3.42,1950,256,144,32,0,0.07,-0.8,-4.9,130,0.094,-0.021,1.000,-7.75,4.00,-10.00,0.0,0.0,0.0,1500,1500,1500,1000,1500,1000,1000,1500,40,40,40,40,40,40,85,45,0
1779439517.888,3.43,2150,257,143,31,0,0.07,-1.6,-8.3,125,0.158,0.014,0.984,-28.25,29.25,-16.00,0.0,0.0,0.0,1500,1500,1500,1000,1500,1000,1000,1500,40,40,40,40,40,40,85,45,0
1779439519.058,3.43,2049,258,142,31,0,0.10,-0.7,-3.9,124,0.066,0.006,0.994,-14.88,2.25,8.12,0.0,0.0,0.0,1500,1500,1500,1000,1500,1000,1000,1500,40,40,40,40,40,40,85,45,0
1779439520.235,3.43,2250,258,142,31,0,0.09,10.1,-5.9,131,0.123,0.209,0.926,-48.50,30.63,58.50,0.0,0.0,0.0,1500,1500,1500,1000,1500,1000,1000,1500,40,40,40,40,40,40,85,45,0
1779439521.390,3.43,2299,259,141,31,0,0.05,-9.1,0.9,123,-0.027,-0.129,0.986,-6.25,-10.00,-27.25,0.0,0.0,0.0,1500,1500,1500,1000,1500,1000,1000,1500,40,40,40,40,40,40,85,45,0
1779439522.592,3.43,2299,259,141,31,0,0.05,-9.1,0.9,123,-0.027,-0.129,0.986,-6.25,-10.00,-27.25,0.0,0.0,0.0,1500,1500,1500,1000,1500,1000,1000,1500,40,40,40,40,40,40,85,45,0
1779439523.775,3.43,2299,259,141,31,0,0.05,-9.1,0.9,123,-0.027,-0.129,0.986,-6.25,-10.00,-27.25,0.0,0.0,0.0,1500,1500,1500,1000,1500,1000,1000,1500,40,40,40,40,40,40,85,45,0
1779439524.916,3.43,2299,259,141,31,0,0.05,-9.1,0.9,123,-0.027,-0.129,0.986,-6.25,-10.00,-27.25,0.0,0.0,0.0,1500,1500,1500,1000,1500,1000,1000,1500,40,40,40,40,40,40,85,45,0
1779439526.073,3.43,1999,262,138,31,0,0.07,24.1,-3.6,139,0.047,0.387,0.908,61.25,-9.62,-20.75,0.0,0.0,0.0,1500,1500,1500,1000,1500,1000,1000,1500,40,40,40,40,40,40,85,45,0
1779439527.249,3.43,2099,262,138,31,0,0.06,31.4,-5.5,141,0.084,0.539,0.840,12.25,6.12,-13.25,0.0,0.0,0.0,1500,1500,1500,1000,1500,1000,1000,1500,40,40,40,40,40,40,85,45,0
1779439528.419,3.43,2200,263,137,31,0,0.04,26.9,-6.6,139,0.092,0.469,0.854,-128.88,8.25,39.50,0.0,0.0,0.0,1500,1500,1500,1000,1500,1000,1000,1500,40,40,40,40,40,40,85,45,0
1779439529.606,3.43,2299,263,137,31,0,0.02,-0.8,0.9,130,-0.021,-0.027,1.002,22.38,-0.25,-2.00,0.0,0.0,0.0,1500,1500,1500,1000,1500,1000,1000,1500,40,40,40,40,40,40,85,45,0
1779439530.774,3.43,2099,264,136,31,0,0.00,30.1,-6.0,141,0.092,0.523,0.826,-83.50,16.00,-7.13,0.0,0.0,0.0,1500,1500,1500,1000,1500,1000,1000,1500,40,40,40,40,40,40,85,45,0
1779439531.946,3.43,2150,265,135,31,0,-0.03,31.8,-8.4,141,0.117,0.553,0.789,-14.62,-2.00,21.75,0.0,0.0,0.0,1500,1500,1500,1000,1500,1000,1000,1500,40,40,40,40,40,40,85,45,0
1779439533.104,3.43,2349,265,135,31,0,-0.07,-5.5,-2.1,127,0.033,0.000,0.973,-107.75,85.25,11.75,0.0,0.0,0.0,1500,1500,1500,1000,1500,1000,1000,1500,40,40,40,40,40,40,85,45,0
1779439534.295,3.43,2150,266,134,31,0,-0.14,12.4,-12.4,121,0.271,0.250,0.906,-156.88,63.00,222.75,0.0,0.0,0.0,1500,1500,1500,1000,1500,1000,1000,1500,40,40,40,40,40,40,85,45,0
1779439535.473,3.44,2799,267,133,31,0,-0.18,2.8,-3.3,81,-0.039,0.053,1.020,86.50,48.88,41.00,0.0,0.0,0.0,1500,1500,1500,1000,1500,1000,1000,1500,40,40,40,40,40,40,85,45,0
1779439536.637,3.43,2049,268,132,31,0,-0.10,19.9,-2.2,83,0.037,0.330,0.939,-1.50,-23.62,-8.50,0.0,0.0,0.0,1500,1500,1500,1000,1500,1000,1000,1500,40,40,40,40,40,40,85,45,0
1779439537.803,3.43,2200,268,132,31,0,-0.05,18.1,-3.2,87,0.045,0.316,0.939,-16.00,3.00,3.75,0.0,0.0,0.0,1500,1500,1500,1000,1500,1000,1000,1500,40,40,40,40,40,40,85,45,0
1779439538.985,3.43,2150,269,131,30,0,0.00,0.9,-2.5,82,0.051,0.021,1.014,-61.75,2.12,-11.62,0.0,0.0,0.0,1500,1500,1500,1000,1500,1000,1000,1500,40,40,40,40,40,40,85,45,0
1779439540.164,3.43,2049,270,130,30,0,0.07,10.2,-6.8,85,0.189,0.174,0.834,57.38,-5.62,-2.00,0.0,0.0,0.0,1500,1500,1500,1000,1500,1000,1000,1500,40,40,40,40,40,40,85,45,0
1779439541.325,3.43,2099,270,130,30,0,0.04,20.0,-11.4,83,0.141,0.336,0.920,-22.38,23.25,48.25,0.0,0.0,0.0,1500,1500,1500,1000,1500,1000,1000,1500,40,40,40,40,40,40,85,45,0
1779439542.506,3.43,2200,271,129,30,0,0.02,-1.3,-4.8,77,0.088,0.014,0.996,-41.00,-4.00,1.12,0.0,0.0,0.0,1500,1500,1500,1000,1500,1000,1000,1500,40,40,40,40,40,40,85,45,0
1779439543.659,3.43,2150,272,128,30,0,0.01,-1.6,-4.3,79,0.064,-0.025,1.029,-19.25,1.12,9.50,0.0,0.0,0.0,1500,1500,1500,1000,1500,1000,1000,1500,40,40,40,40,40,40,85,45,0
1779439544.805,3.43,2250,272,128,30,0,0.02,11.3,-7.6,77,0.131,0.186,0.949,-36.12,32.25,-11.75,0.0,0.0,0.0,1500,1500,1500,1000,1500,1000,1000,1500,40,40,40,40,40,40,85,45,0
1779439545.988,3.43,2049,273,127,30,0,0.04,27.0,-9.1,79,0.156,0.461,0.883,33.75,-3.00,-10.25,0.0,0.0,0.0,1500,1500,1500,1000,1500,1000,1000,1500,40,40,40,40,40,40,85,45,0
1779439547.149,3.43,2200,273,127,30,0,0.04,39.5,-10.5,82,0.158,0.596,0.748,23.12,-14.50,9.12,0.0,0.0,0.0,1500,1500,1500,1000,1500,1000,1000,1500,40,40,40,40,40,40,85,45,0
1779439548.329,3.43,2200,274,126,30,0,0.03,47.0,-8.7,84,0.137,0.727,0.676,4.88,-8.50,16.00,0.0,0.0,0.0,1500,1500,1500,1000,1500,1000,1000,1500,40,40,40,40,40,40,85,45,0
1779439549.497,3.43,2599,275,125,30,0,0.01,59.2,-5.7,88,0.078,0.859,0.494,6.62,-9.25,3.38,0.0,0.0,0.0,1500,1500,1500,1000,1500,1000,1000,1500,40,40,40,40,40,40,85,45,0
1779439550.645,3.43,2650,275,125,30,0,0.00,61.1,-5.2,89,0.072,0.863,0.457,-2.12,-4.12,11.38,0.0,0.0,0.0,1500,1500,1500,1000,1500,1000,1000,1500,40,40,40,40,40,40,85,45,0
1779439551.794,3.43,2250,276,124,30,0,-0.04,0.1,-5.2,68,0.078,0.027,0.998,29.50,11.75,16.38,0.0,0.0,0.0,1500,1500,1500,1000,1500,1000,1000,1500,40,40,40,40,40,40,85,45,0
1779439552.949,3.43,2099,277,123,30,0,-0.04,1.2,-4.8,70,0.072,-0.031,1.006,-16.75,-2.38,-10.00,0.0,0.0,0.0,1500,1500,1500,1000,1500,1000,1000,1500,40,40,40,40,40,40,85,45,0
1779439554.116,3.43,2099,277,123,30,0,-0.04,1.2,-4.8,70,0.072,-0.031,1.006,-16.75,-2.38,-10.00,0.0,0.0,0.0,1500,1500,1500,1000,1500,1000,1000,1500,40,40,40,40,40,40,85,45,0
1779439555.274,3.43,2099,278,122,30,0,-0.03,-0.4,-6.3,74,0.117,0.064,0.949,7.25,18.25,17.88,0.0,0.0,0.0,1500,1500,1500,1000,1500,1000,1000,1500,40,40,40,40,40,40,85,45,0
1779439556.415,3.43,2250,278,122,30,0,-0.01,-0.1,-5.7,69,0.098,0.012,0.998,24.50,-3.88,2.88,0.0,0.0,0.0,1500,1500,1500,1000,1500,1000,1000,1500,40,40,40,40,40,40,85,45,0
1779439557.580,3.43,2150,280,120,30,0,0.03,5.7,-5.9,68,0.104,0.115,0.973,4.25,-0.62,-2.75,0.0,0.0,0.0,1500,1500,1500,1000,1500,1000,1000,1500,40,40,40,40,40,40,85,45,0
1779439558.728,3.43,2150,280,120,30,0,0.03,5.7,-5.9,68,0.104,0.115,0.973,4.25,-0.62,-2.75,0.0,0.0,0.0,1500,1500,1500,1000,1500,1000,1000,1500,40,40,40,40,40,40,85,45,0
1779439559.885,3.43,2049,281,119,29,0,0.08,7.1,-2.9,66,0.035,0.127,0.965,-8.25,-0.38,-6.12,0.0,0.0,0.0,1500,1500,1500,1000,1500,1000,1000,1500,40,40,40,40,40,40,85,45,0
1779439561.050,3.43,2049,281,119,29,0,0.08,6.7,-2.6,67,0.047,0.125,0.998,-18.62,-10.50,-3.00,0.0,0.0,0.0,1500,1500,1500,1000,1500,1000,1000,1500,40,40,40,40,40,40,85,45,0
1779439562.205,3.43,2099,282,118,29,0,0.11,14.8,-23.1,72,0.375,0.236,0.881,27.50,-41.12,4.38,0.0,0.0,0.0,1500,1500,1500,1000,1500,1000,1000,1500,40,40,40,40,40,40,85,45,0
1779439563.349,3.43,2099,282,118,29,0,0.12,20.3,-24.6,74,0.416,0.301,0.848,70.25,-18.38,-35.38,0.0,0.0,0.0,1500,1500,1500,1000,1500,1000,1000,1500,40,40,40,40,40,40,85,45,0
1779439564.500,3.43,2349,283,117,29,0,0.09,41.5,-28.6,84,0.477,0.566,0.652,35.38,-40.38,-13.38,0.0,0.0,0.0,1500,1500,1500,1000,1500,1000,1000,1500,40,40,40,40,40,40,85,45,0
1779439565.648,3.43,2700,284,116,29,0,0.08,55.0,-32.5,96,0.553,0.682,0.471,8.12,-13.88,-2.25,0.0,0.0,0.0,1500,1500,1500,1000,1500,1000,1000,1500,40,40,40,40,40,40,85,45,0
1779439566.800,3.43,2250,285,115,29,0,-0.02,43.0,-18.9,86,0.330,0.617,0.695,45.25,-42.00,-14.50,0.0,0.0,0.0,1500,1500,1500,1000,1500,1000,1000,1500,40,40,40,40,40,40,85,45,0
1779439567.974,3.43,2250,285,115,29,0,-0.02,43.0,-18.9,86,0.330,0.617,0.695,45.25,-42.00,-14.50,0.0,0.0,0.0,1500,1500,1500,1000,1500,1000,1000,1500,40,40,40,40,40,40,85,45,0
1779439569.130,3.43,2250,285,115,29,0,-0.02,43.0,-18.9,86,0.330,0.617,0.695,45.25,-42.00,-14.50,0.0,0.0,0.0,1500,1500,1500,1000,1500,1000,1000,1500,40,40,40,40,40,40,85,45,0
1779439570.282,3.43,2700,286,114,29,0,-0.04,-5.3,0.6,68,-0.010,-0.098,0.992,6.25,-2.25,27.50,0.0,0.0,0.0,1500,1500,1500,1000,1500,1000,1000,1500,40,40,40,40,40,40,85,45,0
1779439571.431,3.43,2049,287,113,29,0,-0.04,-5.3,0.6,68,-0.012,-0.092,0.980,8.12,-6.38,41.25,0.0,0.0,0.0,1500,1500,1500,1000,1500,1000,1000,1500,40,40,40,40,40,40,85,45,0
1779439572.592,3.43,2450,288,112,29,0,0.01,-1.6,3.6,42,-0.027,-0.002,1.018,-21.75,-2.88,33.00,0.0,0.0,0.0,1500,1500,1500,1000,1500,1000,1000,1500,40,40,40,40,40,40,85,45,0
1779439573.766,3.43,2099,290,110,29,0,0.09,1.1,0.6,22,-0.012,0.016,0.996,0.62,1.38,-1.00,0.0,0.0,0.0,1500,1500,1500,1000,1500,1000,1000,1500,40,40,40,40,40,40,85,45,0
1779439574.918,3.43,2099,290,110,29,0,0.09,1.1,0.6,22,-0.012,0.016,0.996,0.62,1.38,-1.00,0.0,0.0,0.0,1500,1500,1500,1000,1500,1000,1000,1500,40,40,40,40,40,40,85,45,0
1779439576.081,3.43,2200,290,110,29,0,0.09,0.9,0.6,21,-0.008,0.014,0.996,2.12,1.12,-1.25,0.0,0.0,0.0,1500,1500,1500,1000,1500,1000,1000,1500,40,40,40,40,40,40,85,45,0
1779439577.233,3.43,2500,292,108,25,0,0.07,10.0,2.3,52,-0.043,0.148,0.949,-23.38,-5.62,-10.12,0.0,0.0,0.0,1500,1500,1500,1000,1500,1000,1000,1500,40,40,40,40,40,40,85,45,0
1779439578.388,3.43,2099,292,108,25,0,0.09,18.6,21.9,57,-0.365,0.254,0.895,32.50,52.38,13.25,0.0,0.0,0.0,1500,1500,1500,1000,1500,1000,1000,1500,40,40,40,40,40,40,85,45,0
1779439579.578,3.43,2749,293,107,25,0,0.12,18.4,12.4,55,-0.301,0.359,0.947,-75.00,-147.00,55.75,0.0,0.0,0.0,1500,1500,1500,1000,1500,1000,1000,1500,40,40,40,40,40,40,85,45,0
1779439580.748,3.43,2099,294,106,25,0,0.22,23.2,5.7,61,-0.166,0.314,0.949,31.38,-23.62,21.38,0.0,0.0,0.0,1500,1500,1500,1000,1500,1000,1000,1500,40,40,40,40,40,40,85,45,0
1779439581.902,3.41,2299,295,105,25,0,0.28,90.4,40.0,7,-0.453,0.811,-0.166,0.88,-288.12,80.25,0.0,0.0,0.0,1500,1500,1500,1000,1500,1000,1000,1500,40,40,40,40,40,40,85,45,0
1779439583.066,3.43,2150,295,105,27,0,0.08,34.3,13.4,59,-0.293,0.551,0.795,-85.88,-72.38,-3.25,0.0,0.0,0.0,1500,1500,1500,1000,1500,1000,1000,1500,40,40,40,40,40,40,85,45,0
1779439584.222,3.43,2400,296,104,27,0,0.02,31.8,31.1,58,-0.477,0.422,0.740,49.75,86.25,-38.00,0.0,0.0,0.0,1500,1500,1500,1000,1500,1000,1000,1500,40,40,40,40,40,40,85,45,0
1779439585.439,3.43,2250,297,103,27,0,0.03,8.3,-4.9,70,0.033,0.102,0.967,-55.50,-135.88,-1.00,0.0,0.0,0.0,1500,1500,1500,1000,1500,1000,1000,1500,40,40,40,40,40,40,85,45,0
1779439586.617,3.36,2250,298,102,26,0,0.03,-1.5,-24.9,69,0.482,-0.016,0.896,31.12,100.25,-72.12,0.0,0.0,0.0,1500,1500,1500,1000,1500,1000,1000,1500,40,40,40,40,40,40,85,45,0
1779439587.778,3.33,2450,298,102,24,0,0.02,12.0,5.8,75,-0.100,0.176,0.977,9.38,24.38,0.38,0.0,0.0,0.0,1500,1500,1500,1000,1500,1000,1000,1500,40,40,40,40,40,40,85,45,0
1779439588.935,3.33,2450,298,102,24,0,0.02,12.1,6.1,75,-0.109,0.176,0.980,5.00,35.00,2.00,0.0,0.0,0.0,1500,1500,1500,1000,1500,1000,1000,1500,40,40,40,40,40,40,85,45,0
1779439590.097,3.43,2299,300,100,24,0,0.03,8.0,3.3,79,-0.121,0.129,0.988,-30.88,-92.88,-6.75,0.0,0.0,0.0,1500,1500,1500,1000,1500,1000,1000,1500,40,40,40,40,40,40,85,45,0
1779439591.275,3.43,2099,301,99,24,0,0.05,-6.9,-38.2,66,0.588,-0.084,0.754,-12.00,12.50,8.25,0.0,0.0,0.0,1500,1500,1500,1000,1500,1000,1000,1500,40,40,40,40,40,40,85,45,0
1779439592.439,3.43,2349,301,99,24,0,0.04,-1.5,7.8,81,-0.100,-0.035,1.010,30.13,34.50,17.25,0.0,0.0,0.0,1500,1500,1500,1000,1500,1000,1000,1500,40,40,40,40,40,40,85,45,0
1779439593.595,3.33,2450,302,98,24,0,0.05,8.3,55.8,83,-0.770,0.084,0.568,-13.38,91.12,-16.00,0.0,0.0,0.0,1500,1500,1500,1000,1500,1000,1000,1500,40,40,40,40,40,40,85,45,0
1779439594.762,3.34,2700,302,98,24,0,0.01,8.5,51.5,82,-0.814,0.074,0.568,7.38,-99.75,9.00,0.0,0.0,0.0,1500,1500,1500,1000,1500,1000,1000,1500,40,40,40,40,40,40,85,45,0
1779439595.917,3.43,2250,303,97,24,0,0.01,9.4,40.2,75,-0.604,0.119,0.795,-2.00,144.75,-28.38,0.0,0.0,0.0,1500,1500,1500,1000,1500,1000,1000,1500,40,40,40,40,40,40,85,45,0
1779439597.076,3.33,2450,304,96,24,0,0.07,4.0,20.9,95,-0.396,0.043,0.936,-7.13,-23.75,-10.00,0.0,0.0,0.0,1500,1500,1500,1000,1500,1000,1000,1500,40,40,40,40,40,40,85,45,0
1779439598.250,3.42,1899,305,95,24,0,0.11,9.9,1.9,67,-0.045,0.123,0.982,2.00,11.62,6.25,0.0,0.0,0.0,1500,1500,1500,1000,1500,1000,1000,1500,40,40,40,40,40,40,85,45,0
1779439599.427,3.42,1700,305,95,24,0,0.10,-2.2,2.2,38,-0.033,0.002,1.006,2.25,-6.62,31.00,0.0,0.0,0.0,1500,1500,1500,1000,1500,1000,1000,1500,40,40,40,40,40,40,85,45,0
1779439600.637,3.43,2500,306,94,24,0,0.04,-2.5,8.1,-1,-0.152,-0.047,0.945,20.50,92.50,57.88,0.0,0.0,0.0,1500,1500,1500,1000,1500,1000,1000,1500,40,40,40,40,40,40,85,45,0
1779439601.820,3.43,2049,307,93,24,0,-0.05,-4.2,11.3,0,-0.221,-0.057,0.979,-19.88,-24.12,30.75,0.0,0.0,0.0,1500,1500,1500,1000,1500,1000,1000,1500,40,40,40,40,40,40,85,45,0
1779439602.998,3.43,2299,307,93,24,0,-0.07,-4.2,2.2,-4,-0.029,-0.057,0.973,19.00,-2.62,19.62,0.0,0.0,0.0,1500,1500,1500,1000,1500,1000,1000,1500,40,40,40,40,40,40,85,45,0
1779439604.185,3.42,1950,308,92,24,0,-0.06,-5.9,1.3,8,-0.039,-0.078,0.980,-6.75,35.25,-0.12,0.0,0.0,0.0,1500,1500,1500,1000,1500,1000,1000,1500,40,40,40,40,40,40,85,45,0
1779439605.355,3.43,2049,309,91,24,0,0.01,0.7,0.6,5,-0.027,0.027,0.998,-2.50,-5.62,-15.50,0.0,0.0,0.0,1500,1500,1500,1000,1500,1000,1000,1500,40,40,40,40,40,40,85,45,0
1779439606.547,3.43,2150,309,91,24,0,0.05,0.4,0.2,5,-0.006,0.027,0.992,-0.62,0.62,-6.88,0.0,0.0,0.0,1500,1500,1500,1000,1500,1000,1000,1500,40,40,40,40,40,40,85,45,0
1779439607.701,3.43,2099,310,90,24,0,0.04,0.2,0.3,6,-0.012,0.016,1.000,-1.87,0.12,-13.00,0.0,0.0,0.0,1500,1500,1500,1000,1500,1000,1000,1500,40,40,40,40,40,40,85,45,0
1779439608.848,3.42,1600,310,90,24,0,0.03,-0.3,0.2,29,-0.014,0.010,0.998,-0.38,-1.25,1.38,0.0,0.0,0.0,1500,1500,1500,1000,1500,1000,1000,1500,40,40,40,40,40,40,85,45,0
1779439610.015,3.52,1299,311,89,24,0,0.00,-0.4,0.3,30,-0.018,0.010,0.996,1.50,0.12,0.50,0.0,0.0,0.0,1500,1500,1500,1000,1500,1000,1000,1500,40,40,40,40,40,40,85,45,0
1779439611.166,3.52,1200,311,89,24,0,0.02,-0.4,0.4,30,-0.016,0.010,0.998,-2.38,-2.38,-1.00,0.0,0.0,0.0,1500,1500,1500,1000,1500,1000,1000,1500,40,40,40,40,40,40,85,45,0
1779439612.346,3.51,1149,312,88,24,0,-0.01,-0.4,0.4,31,-0.014,0.012,0.998,-0.75,0.38,0.62,0.0,0.0,0.0,1500,1500,1500,1000,1500,1000,1000,1500,40,40,40,40,40,40,85,45,0
1779439613.507,3.51,1149,312,88,24,0,0.00,-0.5,0.4,33,-0.016,0.012,0.998,0.12,0.62,-0.25,0.0,0.0,0.0,1500,1500,1500,1000,1500,1000,1000,1500,40,40,40,40,40,40,85,45,0
1779439614.654,3.52,1250,312,88,24,0,0.04,-0.5,0.5,34,-0.014,0.010,0.998,-2.25,1.25,0.12,0.0,0.0,0.0,1500,1500,1500,1000,1500,1000,1000,1500,40,40,40,40,40,40,85,45,0
1779439615.819,3.52,1350,313,87,24,0,-0.01,-0.4,0.5,35,-0.016,0.010,0.998,1.62,0.12,-1.12,0.0,0.0,0.0,1500,1500,1500,1000,1500,1000,1000,1500,40,40,40,40,40,40,85,45,0
1779439616.986,3.52,1450,313,87,24,0,-0.01,-0.8,-0.6,37,-0.002,0.002,1.002,-14.12,-14.12,7.62,0.0,0.0,0.0,1500,1500,1500,1000,1500,1000,1000,1500,40,40,40,40,40,40,85,45,0
1779439618.144,3.42,1749,314,86,24,0,0.00,0.4,-1.3,40,0.023,-0.010,1.055,4.88,1.25,10.00,0.0,0.0,0.0,1500,1500,1500,1000,1500,1000,1000,1500,40,40,40,40,40,40,85,45,0
1779439619.310,3.42,1950,314,86,24,0,-0.02,-0.5,0.6,40,-0.018,0.008,0.998,-0.88,-0.25,-0.50,0.0,0.0,0.0,1500,1500,1500,1000,1500,1000,1000,1500,40,40,40,40,40,40,85,45,0
1779439620.468,3.42,1950,314,86,24,0,-0.03,-0.5,0.6,40,-0.018,0.008,0.996,1.25,1.12,-0.50,0.0,0.0,0.0,1500,1500,1500,1000,1500,1000,1000,1500,40,40,40,40,40,40,85,45,0
1779439621.639,3.43,1999,315,85,24,0,-0.01,-0.5,0.6,41,-0.016,0.008,0.998,2.62,0.12,0.12,0.0,0.0,0.0,1500,1500,1500,1000,1500,1000,1000,1500,40,40,40,40,40,40,85,45,0
1779439622.821,3.34,2749,316,84,24,0,0.04,19.6,43.8,71,-0.758,0.281,0.709,1.12,140.88,-21.50,0.0,0.0,0.0,1500,1500,1500,1000,1500,1000,1000,1500,40,40,40,40,40,40,85,45,0
1779439623.997,3.34,2849,317,83,24,0,0.05,25.7,64.0,73,-0.883,0.203,0.346,65.38,1.75,-15.25,0.0,0.0,0.0,1500,1500,1500,1000,1500,1000,1000,1500,40,40,40,40,40,40,85,45,0
1779439625.196,3.34,2799,317,83,24,0,0.06,26.7,49.3,76,-0.873,0.244,0.586,-29.88,54.38,8.75,0.0,0.0,0.0,1500,1500,1500,1000,1500,1000,1000,1500,40,40,40,40,40,40,85,45,0
1779439626.352,3.43,2150,318,82,24,0,0.05,0.0,0.3,75,-0.020,0.000,0.994,-0.88,-1.12,2.75,0.0,0.0,0.0,1500,1500,1500,1000,1500,1000,1000,1500,40,40,40,40,40,40,85,45,0
1779439627.525,3.43,2150,318,82,24,0,0.05,0.0,0.3,75,-0.018,0.000,0.994,0.25,0.88,-0.38,0.0,0.0,0.0,1500,1500,1500,1000,1500,1000,1000,1500,40,40,40,40,40,40,85,45,0
1779439628.702,3.43,2150,320,80,24,0,-0.01,-0.3,0.5,73,-0.018,0.000,0.996,0.88,-0.25,0.88,0.0,0.0,0.0,1500,1500,1500,1000,1500,1000,1000,1500,40,40,40,40,40,40,85,45,0
1779439629.885,3.43,2150,320,80,24,0,-0.02,-0.4,0.6,71,-0.012,-0.002,0.998,-0.38,0.50,2.50,0.0,0.0,0.0,1500,1500,1500,1000,1500,1000,1000,1500,40,40,40,40,40,40,85,45,0
1779439631.069,3.43,2150,321,79,24,0,-0.03,-5.7,-2.1,65,0.031,-0.082,0.990,-3.00,1.25,7.38,0.0,0.0,0.0,1500,1500,1500,1000,1500,1000,1000,1500,40,40,40,40,40,40,85,45,0
1779439632.230,3.43,2150,322,78,24,0,-0.04,-14.6,-6.6,62,0.113,-0.242,0.955,-15.00,-12.12,5.38,0.0,0.0,0.0,1500,1500,1500,1000,1500,1000,1000,1500,40,40,40,40,40,40,85,45,0
1779439633.391,3.43,2150,322,78,24,0,-0.04,-15.0,-7.4,60,0.127,-0.248,0.953,-13.00,-10.88,8.62,0.0,0.0,0.0,1500,1500,1500,1000,1500,1000,1000,1500,40,40,40,40,40,40,85,45,0
1779439634.537,3.43,2150,323,77,24,0,-0.07,-11.8,-3.5,59,0.061,-0.205,0.965,7.62,1.00,1.87,0.0,0.0,0.0,1500,1500,1500,1000,1500,1000,1000,1500,40,40,40,40,40,40,85,45,0
1779439635.700,3.43,2150,324,76,24,0,-0.10,-9.5,-0.9,57,0.018,-0.160,0.982,4.25,-1.50,-2.50,0.0,0.0,0.0,1500,1500,1500,1000,1500,1000,1000,1500,40,40,40,40,40,40,85,45,0
1779439636.885,3.43,2150,324,76,24,0,-0.07,-19.6,-3.7,56,0.061,-0.318,0.938,7.13,4.50,1.87,0.0,0.0,0.0,1500,1500,1500,1000,1500,1000,1000,1500,40,40,40,40,40,40,85,45,0
1779439638.041,3.43,2150,325,75,24,0,-0.07,-19.5,-3.7,56,0.059,-0.312,0.936,7.25,1.12,7.50,0.0,0.0,0.0,1500,1500,1500,1000,1500,1000,1000,1500,40,40,40,40,40,40,85,45,0
1779439639.205,3.43,2150,325,75,24,0,-0.07,-19.4,-3.6,56,0.059,-0.311,0.934,2.25,5.88,11.12,0.0,0.0,0.0,1500,1500,1500,1000,1500,1000,1000,1500,40,40,40,40,40,40,85,45,0
1779439640.373,3.33,2200,326,74,24,0,-0.04,-7.1,-1.2,58,0.020,-0.100,0.963,-13.38,-1.38,-6.25,0.0,0.0,0.0,1500,1500,1500,1000,1500,1000,1000,1500,40,40,40,40,40,40,85,45,0
1779439641.517,3.33,2200,327,73,24,0,-0.04,-18.8,-2.7,54,0.051,-0.316,0.955,-26.62,-8.88,3.75,0.0,0.0,0.0,1500,1500,1500,1000,1500,1000,1000,1500,40,40,40,40,40,40,85,45,0
1779439642.689,3.33,2200,328,72,24,0,-0.02,-39.4,-6.6,50,0.115,-0.621,0.768,-19.62,-13.88,6.00,0.0,0.0,0.0,1500,1500,1500,1000,1500,1000,1000,1500,40,40,40,40,40,40,85,45,0
1779439643.855,3.33,2349,328,72,24,0,-0.03,-45.5,-5.6,46,0.088,-0.713,0.691,1.50,0.62,6.75,0.0,0.0,0.0,1500,1500,1500,1000,1500,1000,1000,1500,40,40,40,40,40,40,85,45,0
1779439645.001,3.33,2200,329,71,24,0,-0.05,-0.6,0.4,55,-0.016,0.004,0.998,-0.88,1.50,-2.12,0.0,0.0,0.0,1500,1500,1500,1000,1500,1000,1000,1500,40,40,40,40,40,40,85,45,0
1779439646.153,3.33,2200,330,70,24,0,0.01,-0.7,0.6,54,-0.014,0.004,1.000,-1.12,-0.75,2.62,0.0,0.0,0.0,1500,1500,1500,1000,1500,1000,1000,1500,40,40,40,40,40,40,85,45,0
1779439647.304,3.33,2200,330,70,24,0,0.01,-0.7,0.6,54,-0.020,0.002,0.998,0.62,-0.75,0.00,0.0,0.0,0.0,1500,1500,1500,1000,1500,1000,1000,1500,40,40,40,40,40,40,85,45,0
1779439648.489,3.33,2200,330,70,24,0,0.01,-0.7,0.6,54,-0.020,0.002,0.998,0.62,-0.75,0.00,0.0,0.0,0.0,1500,1500,1500,1000,1500,1000,1000,1500,40,40,40,40,40,40,85,45,0
1779439649.723,3.33,2150,331,69,24,0,0.02,-0.7,0.7,52,-0.016,0.006,0.998,1.25,0.62,-1.00,0.0,0.0,0.0,1500,1500,1500,1000,1500,1000,1000,1500,40,40,40,40,40,40,85,45,0
1779439650.876,3.33,2150,333,67,24,0,0.02,-0.7,0.8,51,-0.020,0.000,0.998,1.62,1.50,0.25,0.0,0.0,0.0,1500,1500,1500,1000,1500,1000,1000,1500,40,40,40,40,40,40,85,45,0
1779439652.048,3.33,2150,333,67,24,0,0.00,-0.7,0.8,50,-0.018,0.004,0.998,-1.62,1.87,-0.38,0.0,0.0,0.0,1500,1500,1500,1000,1500,1000,1000,1500,40,40,40,40,40,40,85,45,0
1779439653.218,3.33,2150,334,66,24,0,-0.01,-0.7,0.9,49,-0.016,0.002,0.998,0.12,-1.38,0.62,0.0,0.0,0.0,1500,1500,1500,1000,1500,1000,1000,1500,40,40,40,40,40,40,85,45,0
1779439654.540,3.33,2150,334,66,24,0,-0.01,-0.8,0.9,47,-0.018,0.004,0.998,0.50,-0.75,1.87,0.0,0.0,0.0,1500,1500,1500,1000,1500,1000,1000,1500,40,40,40,40,40,40,85,45,0
1779439655.708,3.33,2150,334,66,24,0,-0.02,-0.8,0.9,47,-0.018,0.000,0.998,1.00,-0.50,2.50,0.0,0.0,0.0,1500,1500,1500,1000,1500,1000,1000,1500,40,40,40,40,40,40,85,45,0
1779439656.868,3.33,2150,336,64,24,0,0.01,-0.7,0.9,46,-0.020,0.000,0.998,-2.62,-0.88,0.00,0.0,0.0,0.0,1500,1500,1500,1000,1500,1000,1000,1500,40,40,40,40,40,40,85,45,0
1779439658.042,3.33,2150,337,63,24,0,0.04,-0.8,0.9,45,-0.018,0.004,0.998,-1.50,-0.88,0.12,0.0,0.0,0.0,1500,1500,1500,1000,1500,1000,1000,1500,40,40,40,40,40,40,85,45,0
1779439659.199,3.33,2150,337,63,24,0,0.00,-0.7,1.0,44,-0.018,0.000,1.000,0.62,-1.12,1.50,0.0,0.0,0.0,1500,1500,1500,1000,1500,1000,1000,1500,40,40,40,40,40,40,85,45,0
1779439660.348,3.33,2150,337,63,24,0,0.00,-0.7,1.0,44,-0.018,0.000,1.000,0.62,-1.12,1.50,0.0,0.0,0.0,1500,1500,1500,1000,1500,1000,1000,1500,40,40,40,40,40,40,85,45,0
1779439662.890,3.33,2099,339,61,24,0,0.01,-0.3,1.1,41,-0.018,0.006,0.998,1.00,-0.12,0.00,0.0,0.0,0.0,1500,1500,1500,1000,1500,1000,1000,1500,40,40,40,40,40,40,85,45,0
1779439664.060,3.32,1899,340,60,24,0,-0.04,-0.5,1.1,40,-0.018,0.004,0.998,-2.00,-1.38,3.38,0.0,0.0,0.0,1500,1500,1500,1000,1500,1000,1000,1500,40,40,40,40,40,40,85,45,0
1779439665.214,3.32,1849,341,59,24,0,-0.03,-0.6,1.1,38,-0.018,0.004,0.998,0.38,-0.38,2.25,0.0,0.0,0.0,1500,1500,1500,1000,1500,1000,1000,1500,40,40,40,40,40,40,85,45,0
1779439666.377,3.32,1799,341,59,24,0,-0.01,-0.6,1.1,37,-0.018,0.004,0.998,-0.25,-2.62,2.38,0.0,0.0,0.0,1500,1500,1500,1000,1500,1000,1000,1500,40,40,40,40,40,40,85,45,0
1779439667.527,3.32,1649,342,58,24,0,0.02,-0.6,1.1,37,-0.020,0.002,0.998,0.50,0.62,-2.12,0.0,0.0,0.0,1500,1500,1500,1000,1500,1000,1000,1500,40,40,40,40,40,40,85,45,0
1779439668.689,3.32,1549,342,58,24,0,0.03,-0.7,1.1,35,-0.018,0.002,0.998,-0.88,-1.25,-0.38,0.0,0.0,0.0,1500,1500,1500,1000,1500,1000,1000,1500,40,40,40,40,40,40,85,45,0
1779439669.865,3.32,1450,343,57,24,0,0.01,-0.7,1.1,35,-0.018,0.004,0.996,-1.50,0.62,-0.62,0.0,0.0,0.0,1500,1500,1500,1000,1500,1000,1000,1500,40,40,40,40,40,40,85,45,0
1779439671.032,3.32,1350,343,57,24,0,0.01,-0.7,1.1,34,-0.020,0.002,0.998,0.00,-0.38,-0.75,0.0,0.0,0.0,1500,1500,1500,1000,1500,1000,1000,1500,40,40,40,40,40,40,85,45,0
1779439672.226,3.32,1250,343,57,24,0,0.00,-0.7,1.1,33,-0.018,0.004,0.998,-0.38,-0.38,0.38,0.0,0.0,0.0,1500,1500,1500,1000,1500,1000,1000,1500,40,40,40,40,40,40,85,45,0
1779439673.418,3.32,1200,344,56,24,0,-0.02,-0.7,1.1,33,-0.020,0.004,0.998,-0.88,-0.75,1.25,0.0,0.0,0.0,1500,1500,1500,1000,1500,1000,1000,1500,40,40,40,40,40,40,85,45,0
1779439674.586,3.32,1200,344,56,24,0,-0.02,-0.7,1.1,33,-0.020,0.004,0.998,0.38,0.62,0.50,0.0,0.0,0.0,1500,1500,1500,1300,1500,1000,1000,1200,40,40,40,40,40,40,85,45,0
1779439675.748,3.32,1200,344,56,24,0,-0.01,-0.7,1.1,32,-0.020,0.002,0.998,-0.75,0.38,1.00,0.0,0.0,0.0,1500,1500,1500,1300,1500,1000,1000,1200,40,40,40,40,40,40,85,45,0
1779439676.904,3.32,1200,344,56,24,0,0.02,-0.7,1.1,31,-0.018,0.004,0.998,1.50,0.38,-0.88,0.0,0.0,0.0,1500,1500,1500,1300,1500,1000,1000,1200,40,40,40,40,40,40,85,45,0
1779439678.085,3.32,1350,345,55,24,0,0.00,-0.6,1.1,28,-0.020,0.002,0.996,-2.88,2.25,-1.62,0.0,0.0,0.0,1500,1500,1500,1300,1500,1000,1000,1200,40,40,40,40,40,40,85,45,0
1779439679.266,3.32,1399,346,54,24,0,-0.01,-0.6,1.1,27,-0.018,0.002,0.998,3.50,2.50,-1.62,0.0,0.0,0.0,1500,1500,1500,1300,1500,1000,1000,1200,40,40,40,40,40,40,85,45,0
1779439680.456,3.22,1549,346,54,20,0,0.02,-0.5,1.2,27,-0.020,0.004,0.994,-0.88,2.50,-2.00,0.0,0.0,0.0,1500,1500,1500,1300,1500,1000,1000,1200,40,40,40,40,40,40,85,45,0
1779439681.628,3.22,1600,346,54,20,0,-0.01,-0.5,1.2,26,-0.020,0.002,0.994,-0.62,2.75,-3.12,0.0,0.0,0.0,1500,1500,1500,1300,1500,1000,1000,1200,40,40,40,40,40,40,85,45,0
1779439682.798,3.22,1749,347,53,20,0,0.00,-0.6,1.2,25,-0.020,0.004,0.996,-0.62,-2.88,-3.88,0.0,0.0,0.0,1500,1500,1500,1300,1500,1000,1000,1200,40,40,40,40,40,40,85,45,0
1779439683.944,3.22,1849,348,52,20,0,0.00,-0.5,1.2,24,-0.021,0.004,0.996,-1.25,-1.25,-0.50,0.0,0.0,0.0,1500,1500,1500,1300,1500,1000,1000,1200,40,40,40,40,40,40,85,45,0
1779439685.119,3.22,1899,348,52,20,0,-0.01,-0.6,1.2,23,-0.018,0.000,0.996,-1.12,0.75,-0.50,0.0,0.0,0.0,1500,1500,1500,1300,1500,1000,1000,1200,40,40,40,40,40,40,85,45,0
1779439686.278,3.22,1899,348,52,20,0,-0.01,-0.5,1.2,23,-0.020,0.002,0.996,1.25,-0.62,-1.12,0.0,0.0,0.0,1500,1500,1500,1300,1500,1000,1000,1200,40,40,40,40,40,40,85,45,0
1779439687.458,3.13,2049,350,50,15,1,0.00,-0.5,1.2,21,-0.021,0.004,0.996,-2.88,-1.50,-2.38,0.0,0.0,0.0,1500,1500,1500,1300,1500,1000,1000,1200,40,40,40,40,40,40,85,45,0
1779439688.628,3.13,2049,350,50,15,1,0.00,-0.4,1.2,20,-0.016,0.000,0.996,-2.50,-0.75,-2.50,0.0,0.0,0.0,1500,1500,1500,1300,1500,1000,1000,1200,40,40,40,40,40,40,85,45,0
1779439689.808,3.13,2049,351,49,15,1,-0.03,-0.4,1.2,20,-0.021,0.008,0.996,-0.88,-0.75,1.62,0.0,0.0,0.0,1500,1500,1500,1300,1500,1000,1000,1200,40,40,40,40,40,40,85,45,0
1779439690.950,3.13,2049,352,48,15,1,-0.02,-0.4,1.2,19,-0.014,0.000,0.998,-0.75,1.25,0.12,0.0,0.0,0.0,1500,1500,1500,1300,1500,1000,1000,1200,40,40,40,40,40,40,85,45,0
1779439692.119,3.12,1999,352,48,15,1,0.01,-0.4,1.1,18,-0.014,0.004,0.996,4.25,2.88,0.88,0.0,0.0,0.0,1500,1500,1500,1300,1500,1000,1000,1200,40,40,40,40,40,40,85,45,0
1779439693.302,3.03,2049,353,47,9,1,0.00,-0.4,1.1,17,-0.018,0.008,1.000,1.00,-0.50,2.62,0.0,0.0,0.0,1500,1500,1500,1300,1500,1000,1000,1200,40,40,40,40,40,40,85,45,0
1779439694.465,3.03,1999,353,47,9,1,0.00,-0.4,1.1,17,-0.018,0.002,0.998,0.88,-0.12,-3.88,0.0,0.0,0.0,1500,1500,1500,1300,1500,1000,1000,1200,40,40,40,40,40,40,85,45,0
1779439695.619,3.03,1999,354,46,9,1,-0.01,-0.4,1.1,15,-0.018,0.006,0.998,1.38,1.25,-1.00,0.0,0.0,0.0,1500,1500,1500,1300,1500,1000,1000,1200,40,40,40,40,40,40,85,45,0
1779452799.163,3.81,499,15,435,71,0,-2.35,1.6,-2.4,-177,0.041,0.023,0.994,0.38,-0.12,0.00,0.0,0.0,0.0,1500,1500,1500,1300,1500,1000,1000,1200,40,40,40,40,40,40,85,45,0
1779452800.376,3.81,499,15,435,71,0,-2.30,1.5,-2.4,-178,0.041,0.023,0.994,0.12,0.50,-0.25,0.0,0.0,0.0,1500,1500,1500,1300,1500,1000,1000,1200,40,40,40,40,40,40,85,45,0
1779452801.686,3.81,499,16,434,71,0,-2.22,1.5,-2.4,-179,0.041,0.023,0.994,0.75,0.25,-0.38,0.0,0.0,0.0,1500,1500,1500,1300,1500,1000,1000,1200,40,40,40,40,40,40,85,45,0
1779452802.811,3.81,499,16,434,71,0,-2.18,1.5,-2.5,180,0.043,0.023,0.996,0.75,0.00,0.00,0.0,0.0,0.0,1500,1500,1500,1300,1500,1000,1000,1200,40,40,40,40,40,40,85,45,0
1779452803.947,3.81,499,16,434,71,0,-2.35,1.5,-2.4,-179,0.041,0.023,0.996,0.62,0.38,-0.25,0.0,0.0,0.0,1500,1500,1500,1300,1500,1000,1000,1200,40,40,40,40,40,40,85,45,0
1779452805.185,3.81,499,16,434,71,0,-2.33,1.5,-2.5,180,0.041,0.023,0.996,0.62,0.12,-0.25,0.0,0.0,0.0,1500,1500,1500,1300,1500,1000,1000,1200,40,40,40,40,40,40,85,45,0
1779452806.343,3.81,499,16,434,71,0,-2.13,1.5,-2.4,-178,0.041,0.023,0.994,-0.12,0.25,-0.12,0.0,0.0,0.0,1500,1500,1500,1300,1500,1000,1000,1200,40,40,40,40,40,40,85,45,0
1779452807.632,3.81,499,16,434,71,0,-2.08,1.5,-2.5,-179,0.041,0.023,0.996,-0.75,0.25,0.12,0.0,0.0,0.0,1500,1500,1500,1300,1500,1000,1000,1200,40,40,40,40,40,40,85,45,0
1779452808.873,3.81,499,17,433,71,0,-2.03,1.5,-2.4,-178,0.041,0.023,0.994,-0.25,0.00,0.00,0.0,0.0,0.0,1500,1500,1500,1300,1500,1000,1000,1200,40,40,40,40,40,40,85,45,0
1779452809.975,3.81,499,17,433,71,0,-2.03,1.5,-2.4,-178,0.043,0.023,0.996,0.38,0.25,-0.12,0.0,0.0,0.0,1500,1500,1500,1300,1500,1000,1000,1200,40,40,40,40,40,40,85,45,0
1779452811.058,3.81,499,17,433,71,0,-2.04,1.4,-2.5,179,0.043,0.023,0.996,0.62,-0.75,-0.38,0.0,0.0,0.0,1500,1500,1500,1300,1500,1000,1000,1200,40,40,40,40,40,40,85,45,0
1779452812.153,3.81,499,17,433,71,0,-2.08,1.4,-2.5,178,0.041,0.023,0.996,0.88,-0.12,-0.25,0.0,0.0,0.0,1500,1500,1500,1300,1500,1000,1000,1200,40,40,40,40,40,40,85,45,0
1779452813.240,3.81,499,17,433,71,0,-2.12,1.5,-2.4,180,0.043,0.023,0.996,0.00,0.62,-0.25,0.0,0.0,0.0,1500,1500,1500,1300,1500,1000,1000,1200,40,40,40,40,40,40,85,45,0
1779452814.316,3.81,499,17,433,71,0,-2.13,1.4,-2.5,179,0.043,0.023,0.996,0.00,0.00,-0.38,0.0,0.0,0.0,1500,1500,1500,1300,1500,1000,1000,1200,40,40,40,40,40,40,85,45,0
1779452815.436,3.81,499,18,432,70,0,-2.09,1.5,-2.4,179,0.043,0.023,0.998,0.75,0.00,-0.38,0.0,0.0,0.0,1500,1500,1500,1300,1500,1000,1000,1200,40,40,40,40,40,40,85,45,0
1779452816.504,3.81,499,18,432,70,0,-2.04,1.5,-2.4,179,0.041,0.023,0.998,0.88,-0.25,-0.38,0.0,0.0,0.0,1500,1500,1500,1300,1500,1000,1000,1200,40,40,40,40,40,40,85,45,0
1779452817.640,3.81,499,18,432,70,0,-2.03,1.5,-2.4,179,0.041,0.023,0.996,0.12,0.50,-0.25,0.0,0.0,0.0,1500,1500,1500,1300,1500,1000,1000,1200,40,40,40,40,40,40,85,45,0
1779452818.711,3.81,499,18,432,70,0,-2.02,1.4,-2.4,180,0.041,0.021,0.994,0.62,0.00,-0.12,0.0,0.0,0.0,1500,1500,1500,1300,1500,1000,1000,1200,40,40,40,40,40,40,85,45,0
1779452820.348,3.81,499,18,432,70,0,-2.17,1.5,-2.4,-178,0.043,0.021,0.994,1.00,0.25,-0.12,0.0,0.0,0.0,1500,1500,1500,1300,1500,1000,1000,1200,40,40,40,40,40,40,85,45,0
1779452821.516,3.81,499,18,432,70,0,-2.17,1.5,-2.4,-178,0.043,0.021,0.994,0.38,0.00,-0.50,0.0,0.0,0.0,1500,1500,1500,1300,1500,1000,1000,1200,40,40,40,40,40,40,85,45,0
1779452822.606,3.81,499,18,432,70,0,-2.18,1.5,-2.4,-178,0.043,0.021,0.994,0.38,0.00,-0.50,0.0,0.0,0.0,1500,1500,1500,1300,1500,1000,1000,1200,40,40,40,40,40,40,85,45,0
1779452823.731,3.81,499,18,432,70,0,-2.18,1.5,-2.4,-178,0.043,0.021,0.994,0.38,0.00,-0.50,0.0,0.0,0.0,1500,1500,1500,1300,1500,1000,1000,1200,40,40,40,40,40,40,85,45,0
1779452824.929,3.81,499,19,431,70,0,-2.25,1.5,-2.4,179,0.041,0.023,0.996,0.12,0.00,0.00,0.0,0.0,0.0,1500,1500,1500,1300,1500,1000,1000,1200,40,40,40,40,40,40,85,45,0
1779452826.085,3.81,499,19,431,70,0,-2.17,1.5,-2.4,180,0.041,0.023,0.996,0.50,0.50,-0.25,0.0,0.0,0.0,1500,1500,1500,1300,1500,1000,1000,1200,40,40,40,40,40,40,85,45,0
1779452827.439,3.81,499,19,431,70,0,-2.17,1.5,-2.4,-179,0.041,0.021,0.996,0.25,0.12,0.12,0.0,0.0,0.0,1500,1500,1500,1300,1500,1000,1000,1200,40,40,40,40,40,40,85,45,0
1779452828.569,3.81,499,19,431,70,0,-2.18,1.4,-2.5,180,0.041,0.023,0.996,0.62,-0.12,-0.12,0.0,0.0,0.0,1500,1500,1500,1300,1500,1000,1000,1200,40,40,40,40,40,40,85,45,0
1779452829.657,3.81,499,19,431,70,0,-2.19,1.5,-2.4,-179,0.041,0.023,0.996,0.25,0.00,-0.38,0.0,0.0,0.0,1500,1500,1500,1300,1500,1000,1000,1200,40,40,40,40,40,40,85,45,0
1779452830.797,3.81,499,20,430,70,0,-2.17,1.5,-2.4,-177,0.043,0.023,0.996,0.50,-0.12,-0.12,0.0,0.0,0.0,1500,1500,1500,1300,1500,1000,1000,1200,40,40,40,40,40,40,85,45,0
1779452831.969,3.81,499,20,430,70,0,-2.01,1.3,-2.5,176,0.043,0.023,0.994,0.00,-0.25,0.00,0.0,0.0,0.0,1500,1500,1500,1300,1500,1000,1000,1200,40,40,40,40,40,40,85,45,0
1779452833.162,3.81,499,20,430,70,0,-1.96,1.6,-2.5,180,0.043,0.025,0.996,0.50,-1.62,-1.62,0.0,0.0,0.0,1500,1500,1500,1300,1500,1000,1000,1200,40,40,40,40,40,40,85,45,0
1779452834.337,3.81,499,20,430,70,0,-2.02,1.5,-2.4,-179,0.043,0.023,0.998,0.00,-0.12,2.00,0.0,0.0,0.0,1500,1500,1500,1300,1500,1000,1000,1200,40,40,40,40,40,40,85,45,0
1779452835.835,3.81,499,20,430,70,0,-2.12,1.4,-2.2,-179,0.037,0.020,0.996,1.00,0.12,-0.50,0.0,0.0,0.0,1500,1500,1500,1300,1500,1000,1000,1200,40,40,40,40,40,40,85,45,0
1779452836.941,3.81,499,20,430,70,0,-2.18,1.3,-2.2,-179,0.039,0.021,0.998,0.50,0.38,-0.38,0.0,0.0,0.0,1500,1500,1500,1300,1500,1000,1000,1200,40,40,40,40,40,40,85,45,0
1779452838.062,3.81,499,21,429,70,0,-2.18,1.2,0.5,-179,0.016,0.014,1.025,-16.38,80.38,19.12,0.0,0.0,0.0,1500,1500,1500,1300,1500,1000,1000,1200,40,40,40,40,40,40,85,45,0
1779452839.223,3.81,499,21,429,70,0,-2.14,0.5,14.2,176,-0.236,0.000,0.975,-1.50,4.88,-2.88,0.0,0.0,0.0,1500,1500,1500,1300,1500,1000,1000,1200,40,40,40,40,40,40,85,45,0
1779452840.447,3.81,499,21,429,70,0,-2.10,0.3,5.7,171,-0.109,-0.006,0.996,-1.25,-1.50,8.62,0.0,0.0,0.0,1500,1500,1500,1300,1500,1000,1000,1200,40,40,40,40,40,40,85,45,0
1779452841.694,3.80,300,21,429,70,0,-2.16,0.8,-1.3,167,0.025,0.008,0.998,0.50,-0.88,0.00,0.0,0.0,0.0,1500,1500,1500,1300,1500,1000,1000,1200,40,40,40,40,40,40,85,45,0
1779452842.845,3.90,50,21,429,73,0,-2.24,0.8,-1.6,169,0.027,0.010,0.998,0.38,0.00,-0.12,0.0,0.0,0.0,1500,1500,1500,1300,1500,1000,1000,1200,40,40,40,40,40,40,85,45,0
1779452844.179,3.90,50,21,429,73,0,-2.27,0.7,-1.7,169,0.029,0.010,0.998,0.88,0.00,-0.38,0.0,0.0,0.0,1500,1500,1500,1300,1500,1000,1000,1200,40,40,40,40,40,40,85,45,0
1779452845.461,3.90,50,21,429,73,0,-2.21,0.8,-1.6,170,0.027,0.010,0.998,0.50,0.00,0.25,0.0,0.0,0.0,1500,1500,1500,1300,1500,1000,1000,1200,40,40,40,40,40,40,85,45,0
1779452846.662,3.90,50,21,429,73,0,-2.15,0.8,-1.7,171,0.029,0.010,0.998,0.00,0.00,0.00,0.0,0.0,0.0,1500,1500,1500,1300,1500,1000,1000,1200,40,40,40,40,40,40,85,45,0
1779452847.843,3.90,50,21,429,73,0,-2.07,0.7,-1.7,168,0.029,0.010,0.998,0.38,-0.12,-0.12,0.0,0.0,0.0,1500,1500,1500,1300,1500,1000,1000,1200,40,40,40,40,40,40,85,45,0
1779452849.026,3.90,50,21,429,73,0,-2.13,0.7,-1.7,167,0.029,0.010,0.998,0.62,0.12,-0.25,0.0,0.0,0.0,1500,1500,1500,1300,1500,1000,1000,1200,40,40,40,40,40,40,85,45,0
1779452850.205,3.90,50,21,429,73,0,-2.22,0.8,-1.7,168,0.029,0.010,1.000,0.12,-0.38,-0.25,0.0,0.0,0.0,1500,1500,1500,1300,1500,1000,1000,1200,40,40,40,40,40,40,85,45,0
1779452851.356,3.90,50,21,429,73,0,-2.22,0.8,-1.7,169,0.029,0.010,0.998,0.25,0.00,-0.25,0.0,0.0,0.0,1500,1500,1500,1300,1500,1000,1000,1200,40,40,40,40,40,40,85,45,0
1779452852.447,3.90,50,21,429,73,0,-2.16,-0.2,0.2,171,0.035,0.016,1.020,-47.75,10.50,-17.50,0.0,0.0,0.0,1500,1500,1500,1300,1500,1000,1000,1200,40,40,40,40,40,40,85,45,0
1779452853.591,3.90,50,21,429,73,0,-2.11,-1.8,-4.1,-169,0.076,-0.029,0.996,3.00,6.25,-7.75,0.0,0.0,0.0,1500,1500,1500,1300,1500,1000,1000,1200,40,40,40,40,40,40,85,45,0
1779452854.723,3.90,50,21,429,73,0,-1.97,-0.4,-3.6,-164,0.059,-0.008,0.971,-16.12,23.75,-48.12,0.0,0.0,0.0,1500,1500,1500,1300,1500,1000,1000,1200,40,40,40,40,40,40,85,45,0
1779452855.843,3.90,50,21,429,73,0,-1.95,-0.7,-2.4,-163,0.031,-0.002,0.971,14.25,23.88,-28.38,0.0,0.0,0.0,1500,1500,1500,1300,1500,1000,1000,1200,40,40,40,40,40,40,85,45,0
1779452856.976,3.90,50,21,429,73,0,-1.76,4.0,-6.1,-168,0.098,0.066,0.961,7.88,12.88,9.88,0.0,0.0,0.0,1500,1500,1500,1300,1500,1000,1000,1200,40,40,40,40,40,40,85,45,0
1779452858.126,3.90,50,21,429,73,0,-1.76,4.0,-6.1,-168,0.098,0.066,0.961,7.88,12.88,9.88,0.0,0.0,0.0,1500,1500,1500,1300,1500,1000,1000,1200,40,40,40,40,40,40,85,45,0
1779452859.257,3.90,50,21,429,73,0,-1.76,4.0,-6.1,-168,0.098,0.066,0.961,7.88,12.88,9.88,0.0,0.0,0.0,1500,1500,1500,1300,1500,1000,1000,1200,40,40,40,40,40,40,85,45,0
1779452860.386,3.90,50,21,429,73,0,-1.76,4.0,-6.1,-168,0.098,0.066,0.961,7.88,12.88,9.88,0.0,0.0,0.0,1500,1500,1500,1300,1500,1000,1000,1200,40,40,40,40,40,40,85,45,0
